[
  {
    "town": "AGUASCALIENTES",
    "state": "AGUASCALIENTES",
    "lat": "21.88234",
    "lng": "-102.28259"
  },
  {
    "town": "ASIENTOS",
    "state": "AGUASCALIENTES",
    "lat": "22.23333",
    "lng": "-102.08333"
  },
  {
    "town": "CALVILLO",
    "state": "AGUASCALIENTES",
    "lat": "21.85",
    "lng": "-102.71666"
  },
  {
    "town": "COSÍO",
    "state": "AGUASCALIENTES",
    "lat": "22.36667",
    "lng": "-102.3"
  },
  {
    "town": "JESÚS MARÍA",
    "state": "AGUASCALIENTES",
    "lat": "21.96667",
    "lng": "-102.35"
  },
  {
    "town": "PABELLÓN DE ARTEAGA",
    "state": "AGUASCALIENTES",
    "lat": "22.14642",
    "lng": "-102.2769"
  },
  {
    "town": "RINCÓN DE ROMOS",
    "state": "AGUASCALIENTES",
    "lat": "22.22819",
    "lng": "-102.32216"
  },
  {
    "town": "SAN JOSÉ DE GRACIA",
    "state": "AGUASCALIENTES",
    "lat": "22.15",
    "lng": "-102.41666"
  },
  {
    "town": "TEPEZALÁ",
    "state": "AGUASCALIENTES",
    "lat": "22.21667",
    "lng": "-102.16666"
  },
  {
    "town": "EL LLANO",
    "state": "AGUASCALIENTES",
    "lat": "21.91667",
    "lng": "-101.96666"
  },
  {
    "town": "SAN FRANCISCO DE LOS ROMO",
    "state": "AGUASCALIENTES",
    "lat": "22.03307",
    "lng": "-102.22902"
  },
  {
    "town": "ENSENADA",
    "state": "BAJA CALIFORNIA",
    "lat": "31.87149",
    "lng": "-116.60071"
  },
  {
    "town": "MEXICALI",
    "state": "BAJA CALIFORNIA",
    "lat": "32.62781",
    "lng": "-115.45446"
  },
  {
    "town": "TECATE",
    "state": "BAJA CALIFORNIA",
    "lat": "32.56717",
    "lng": "-116.62509"
  },
  {
    "town": "TIJUANA",
    "state": "BAJA CALIFORNIA",
    "lat": "32.5027",
    "lng": "-117.00371"
  },
  {
    "town": "PLAYAS DE ROSARITO",
    "state": "BAJA CALIFORNIA",
    "lat": "32.36044",
    "lng": "-117.04645"
  },
  {
    "town": "COMONDÚ",
    "state": "BAJA CALIFORNIA SUR",
    "lat": "26.06667",
    "lng": "-111.81666"
  },
  {
    "town": "MULEGÉ",
    "state": "BAJA CALIFORNIA SUR",
    "lat": "26.6",
    "lng": "-112.33333"
  },
  {
    "town": "LA PAZ",
    "state": "BAJA CALIFORNIA SUR",
    "lat": "24.14437",
    "lng": "-110.3005"
  },
  {
    "town": "LOS CABOS",
    "state": "BAJA CALIFORNIA SUR",
    "lat": "23.15185",
    "lng": "-109.72104"
  },
  {
    "town": "LORETO",
    "state": "BAJA CALIFORNIA SUR",
    "lat": "25.98919",
    "lng": "-111.34836"
  },
  {
    "town": "CALKINÍ",
    "state": "CAMPECHE",
    "lat": "20.38583",
    "lng": "-89.98764"
  },
  {
    "town": "CAMPECHE",
    "state": "CAMPECHE",
    "lat": "18.83333",
    "lng": "-90.25"
  },
  {
    "town": "CARMEN",
    "state": "CAMPECHE",
    "lat": "18.64592",
    "lng": "-91.82991"
  },
  {
    "town": "CHAMPOTÓN",
    "state": "CAMPECHE",
    "lat": "19.34745",
    "lng": "-90.72039"
  },
  {
    "town": "HECELCHAKÁN",
    "state": "CAMPECHE",
    "lat": "20.16667",
    "lng": "-90.13333"
  },
  {
    "town": "HOPELCHÉN",
    "state": "CAMPECHE",
    "lat": "19.57579",
    "lng": "-89.68745"
  },
  {
    "town": "PALIZADA",
    "state": "CAMPECHE",
    "lat": "18.25261",
    "lng": "-92.07779"
  },
  {
    "town": "TENABO",
    "state": "CAMPECHE",
    "lat": "19.83333",
    "lng": "-90"
  },
  {
    "town": "ESCÁRCEGA",
    "state": "CAMPECHE",
    "lat": "18.60891",
    "lng": "-90.74544"
  },
  {
    "town": "CALAKMUL",
    "state": "CAMPECHE",
    "lat": "18",
    "lng": "-89.75"
  },
  {
    "town": "CANDELARIA",
    "state": "CAMPECHE",
    "lat": "18",
    "lng": "-90.75"
  },
  {
    "town": "ACACOYAGUA",
    "state": "CHIAPAS",
    "lat": "15.41414",
    "lng": "-92.68169"
  },
  {
    "town": "ACALA",
    "state": "CHIAPAS",
    "lat": "16.55394",
    "lng": "-92.81765"
  },
  {
    "town": "ACAPETAHUA",
    "state": "CHIAPAS",
    "lat": "15.28333",
    "lng": "-92.68333"
  },
  {
    "town": "ALTAMIRANO",
    "state": "CHIAPAS",
    "lat": "16.69868",
    "lng": "-92.00981"
  },
  {
    "town": "AMATÁN",
    "state": "CHIAPAS",
    "lat": "17.36667",
    "lng": "-92.81667"
  },
  {
    "town": "AMATENANGO DE LA FRONTERA",
    "state": "CHIAPAS",
    "lat": "15.43333",
    "lng": "-92.11667"
  },
  {
    "town": "AMATENANGO DEL VALLE",
    "state": "CHIAPAS",
    "lat": "16.53333",
    "lng": "-92.43333"
  },
  {
    "town": "ANGEL ALBINO CORZO",
    "state": "CHIAPAS",
    "lat": "16.56182",
    "lng": "-93.02608"
  },
  {
    "town": "ARRIAGA",
    "state": "CHIAPAS",
    "lat": "16.235",
    "lng": "-93.89556"
  },
  {
    "town": "BEJUCAL DE OCAMPO",
    "state": "CHIAPAS",
    "lat": "15.45",
    "lng": "-92.16667"
  },
  {
    "town": "BELLA VISTA",
    "state": "CHIAPAS",
    "lat": "15.58333",
    "lng": "-92.21667"
  },
  {
    "town": "BERRIOZÁBAL",
    "state": "CHIAPAS",
    "lat": "16.8",
    "lng": "-93.26667"
  },
  {
    "town": "BOCHIL",
    "state": "CHIAPAS",
    "lat": "16.98333",
    "lng": "-92.91667"
  },
  {
    "town": "EL BOSQUE",
    "state": "CHIAPAS",
    "lat": "17.06667",
    "lng": "-92.71667"
  },
  {
    "town": "CACAHOATÁN",
    "state": "CHIAPAS",
    "lat": "15.06151",
    "lng": "-92.15881"
  },
  {
    "town": "CATAZAJÁ",
    "state": "CHIAPAS",
    "lat": "17.73333",
    "lng": "-92.01667"
  },
  {
    "town": "CINTALAPA",
    "state": "CHIAPAS",
    "lat": "16.68393",
    "lng": "-93.71814"
  },
  {
    "town": "COAPILLA",
    "state": "CHIAPAS",
    "lat": "17.13333",
    "lng": "-93.16667"
  },
  {
    "town": "COMITÁN DE DOMÍNGUEZ",
    "state": "CHIAPAS",
    "lat": "16.2471",
    "lng": "-92.13515"
  },
  {
    "town": "LA CONCORDIA",
    "state": "CHIAPAS",
    "lat": "16.11667",
    "lng": "-92.68333"
  },
  {
    "town": "COPAINALÁ",
    "state": "CHIAPAS",
    "lat": "17.08333",
    "lng": "-93.2"
  },
  {
    "town": "CHALCHIHUITÁN",
    "state": "CHIAPAS",
    "lat": "16.96667",
    "lng": "-92.65"
  },
  {
    "town": "CHAMULA",
    "state": "CHIAPAS",
    "lat": "16.78333",
    "lng": "-92.68333"
  },
  {
    "town": "CHANAL",
    "state": "CHIAPAS",
    "lat": "16.65395",
    "lng": "-92.25014"
  },
  {
    "town": "CHAPULTENANGO",
    "state": "CHIAPAS",
    "lat": "17.33333",
    "lng": "-93.13333"
  },
  {
    "town": "CHENALHÓ",
    "state": "CHIAPAS",
    "lat": "16.88333",
    "lng": "-92.63333"
  },
  {
    "town": "CHIAPA DE CORZO",
    "state": "CHIAPAS",
    "lat": "16.7077",
    "lng": "-93.01184"
  },
  {
    "town": "CHIAPILLA",
    "state": "CHIAPAS",
    "lat": "16.55397",
    "lng": "-92.72594"
  },
  {
    "town": "CHICOASÉN",
    "state": "CHIAPAS",
    "lat": "16.96528",
    "lng": "-93.10472"
  },
  {
    "town": "CHICOMUSELO",
    "state": "CHIAPAS",
    "lat": "15.76667",
    "lng": "-92.26667"
  },
  {
    "town": "CHILÓN",
    "state": "CHIAPAS",
    "lat": "17.11667",
    "lng": "-92.28333"
  },
  {
    "town": "ESCUINTLA",
    "state": "CHIAPAS",
    "lat": "15.33333",
    "lng": "-92.63333"
  },
  {
    "town": "FRANCISCO LEÓN",
    "state": "CHIAPAS",
    "lat": "17.31667",
    "lng": "-93.25"
  },
  {
    "town": "FRONTERA COMALAPA",
    "state": "CHIAPAS",
    "lat": "15.74099",
    "lng": "-92.07667"
  },
  {
    "town": "FRONTERA HIDALGO",
    "state": "CHIAPAS",
    "lat": "14.75148",
    "lng": "-92.20712"
  },
  {
    "town": "LA GRANDEZA",
    "state": "CHIAPAS",
    "lat": "15.50828",
    "lng": "-92.22279"
  },
  {
    "town": "HUEHUETÁN",
    "state": "CHIAPAS",
    "lat": "15.03045",
    "lng": "-92.40093"
  },
  {
    "town": "HUIXTÁN",
    "state": "CHIAPAS",
    "lat": "16.706",
    "lng": "-92.40104"
  },
  {
    "town": "HUITIUPÁN",
    "state": "CHIAPAS",
    "lat": "17.23899",
    "lng": "-92.70811"
  },
  {
    "town": "HUIXTLA",
    "state": "CHIAPAS",
    "lat": "15.14286",
    "lng": "-92.5122"
  },
  {
    "town": "LA INDEPENDENCIA",
    "state": "CHIAPAS",
    "lat": "16.21503",
    "lng": "-91.74111"
  },
  {
    "town": "IXHUATÁN",
    "state": "CHIAPAS",
    "lat": "17.29816",
    "lng": "-93.00808"
  },
  {
    "town": "IXTACOMITÁN",
    "state": "CHIAPAS",
    "lat": "17.42668",
    "lng": "-93.0943"
  },
  {
    "town": "IXTAPA",
    "state": "CHIAPAS",
    "lat": "16.81299",
    "lng": "-92.91332"
  },
  {
    "town": "IXTAPANGAJOYA",
    "state": "CHIAPAS",
    "lat": "17.47893",
    "lng": "-92.98738"
  },
  {
    "town": "JIQUIPILAS",
    "state": "CHIAPAS",
    "lat": "16.56952",
    "lng": "-93.64175"
  },
  {
    "town": "JITOTOL",
    "state": "CHIAPAS",
    "lat": "17.0961",
    "lng": "-92.83769"
  },
  {
    "town": "JUÁREZ",
    "state": "CHIAPAS",
    "lat": "17.6938",
    "lng": "-93.18834"
  },
  {
    "town": "LARRÁINZAR",
    "state": "CHIAPAS",
    "lat": "16.91366",
    "lng": "-92.76373"
  },
  {
    "town": "LA LIBERTAD",
    "state": "CHIAPAS",
    "lat": "17.57345",
    "lng": "-91.74985"
  },
  {
    "town": "MAPASTEPEC",
    "state": "CHIAPAS",
    "lat": "15.41979",
    "lng": "-92.94922"
  },
  {
    "town": "LAS MARGARITAS",
    "state": "CHIAPAS",
    "lat": "16.3856",
    "lng": "-91.74028"
  },
  {
    "town": "MAZAPA DE MADERO",
    "state": "CHIAPAS",
    "lat": "15.36461",
    "lng": "-92.18762"
  },
  {
    "town": "MAZATÁN",
    "state": "CHIAPAS",
    "lat": "14.87945",
    "lng": "-92.46766"
  },
  {
    "town": "METAPA",
    "state": "CHIAPAS",
    "lat": "14.82509",
    "lng": "-92.19777"
  },
  {
    "town": "MITONTIC",
    "state": "CHIAPAS",
    "lat": "16.8754",
    "lng": "-92.5713"
  },
  {
    "town": "MOTOZINTLA",
    "state": "CHIAPAS",
    "lat": "15.29745",
    "lng": "-92.34344"
  },
  {
    "town": "NICOLÁS RUÍZ",
    "state": "CHIAPAS",
    "lat": "16.44833",
    "lng": "-92.60361"
  },
  {
    "town": "OCOSINGO",
    "state": "CHIAPAS",
    "lat": "16.8721",
    "lng": "-91.80196"
  },
  {
    "town": "OCOTEPEC",
    "state": "CHIAPAS",
    "lat": "17.21915",
    "lng": "-93.17244"
  },
  {
    "town": "OCOZOCOAUTLA DE ESPINOSA",
    "state": "CHIAPAS",
    "lat": "16.78617",
    "lng": "-93.43433"
  },
  {
    "town": "OSTUACÁN",
    "state": "CHIAPAS",
    "lat": "17.44081",
    "lng": "-93.41707"
  },
  {
    "town": "OSUMACINTA",
    "state": "CHIAPAS",
    "lat": "16.8878",
    "lng": "-93.07006"
  },
  {
    "town": "OXCHUC",
    "state": "CHIAPAS",
    "lat": "16.79884",
    "lng": "-92.29757"
  },
  {
    "town": "PALENQUE",
    "state": "CHIAPAS",
    "lat": "17.50953",
    "lng": "-91.98248"
  },
  {
    "town": "PANTELHÓ",
    "state": "CHIAPAS",
    "lat": "17.0637",
    "lng": "-92.4552"
  },
  {
    "town": "PANTEPEC",
    "state": "CHIAPAS",
    "lat": "17.18721",
    "lng": "-93.05422"
  },
  {
    "town": "PICHUCALCO",
    "state": "CHIAPAS",
    "lat": "17.53928",
    "lng": "-93.16116"
  },
  {
    "town": "PIJIJIAPAN",
    "state": "CHIAPAS",
    "lat": "15.68618",
    "lng": "-93.20938"
  },
  {
    "town": "EL PORVENIR",
    "state": "CHIAPAS",
    "lat": "15.43092",
    "lng": "-92.26447"
  },
  {
    "town": "VILLA COMALTITLÁN",
    "state": "CHIAPAS",
    "lat": "15.18645",
    "lng": "-92.59053"
  },
  {
    "town": "PUEBLO NUEVO SOLISTAHUACÁN",
    "state": "CHIAPAS",
    "lat": "17.21162",
    "lng": "-92.85475"
  },
  {
    "town": "RAYÓN",
    "state": "CHIAPAS",
    "lat": "17.20063",
    "lng": "-92.99756"
  },
  {
    "town": "REFORMA",
    "state": "CHIAPAS",
    "lat": "17.86876",
    "lng": "-93.22673"
  },
  {
    "town": "LAS ROSAS",
    "state": "CHIAPAS",
    "lat": "16.35655",
    "lng": "-92.37021"
  },
  {
    "town": "SABANILLA",
    "state": "CHIAPAS",
    "lat": "17.30308",
    "lng": "-92.58368"
  },
  {
    "town": "SALTO DE AGUA",
    "state": "CHIAPAS",
    "lat": "17.42001",
    "lng": "-92.2064"
  },
  {
    "town": "SAN CRISTÓBAL DE LAS CASAS",
    "state": "CHIAPAS",
    "lat": "16.73176",
    "lng": "-92.64126"
  },
  {
    "town": "SAN FERNANDO",
    "state": "CHIAPAS",
    "lat": "16.904",
    "lng": "-93.22282"
  },
  {
    "town": "SILTEPEC",
    "state": "CHIAPAS",
    "lat": "15.55383",
    "lng": "-92.43138"
  },
  {
    "town": "SIMOJOVEL",
    "state": "CHIAPAS",
    "lat": "17.14736",
    "lng": "-92.67154"
  },
  {
    "town": "SITALÁ",
    "state": "CHIAPAS",
    "lat": "17.03982",
    "lng": "-92.35195"
  },
  {
    "town": "SOCOLTENANGO",
    "state": "CHIAPAS",
    "lat": "16.17412",
    "lng": "-92.36658"
  },
  {
    "town": "SOLOSUCHIAPA",
    "state": "CHIAPAS",
    "lat": "17.39364",
    "lng": "-93.01301"
  },
  {
    "town": "SOYALÓ",
    "state": "CHIAPAS",
    "lat": "16.91352",
    "lng": "-92.96579"
  },
  {
    "town": "SUCHIAPA",
    "state": "CHIAPAS",
    "lat": "16.60775",
    "lng": "-93.10003"
  },
  {
    "town": "SUCHIATE",
    "state": "CHIAPAS",
    "lat": "14.64138",
    "lng": "-92.22252"
  },
  {
    "town": "SUNUAPA",
    "state": "CHIAPAS",
    "lat": "17.48316",
    "lng": "-93.24699"
  },
  {
    "town": "TAPACHULA",
    "state": "CHIAPAS",
    "lat": "14.90385",
    "lng": "-92.25749"
  },
  {
    "town": "TAPALAPA",
    "state": "CHIAPAS",
    "lat": "17.22618",
    "lng": "-93.11552"
  },
  {
    "town": "TAPILULA",
    "state": "CHIAPAS",
    "lat": "17.25355",
    "lng": "-93.00933"
  },
  {
    "town": "TECPATÁN",
    "state": "CHIAPAS",
    "lat": "17.18448",
    "lng": "-93.47103"
  },
  {
    "town": "TENEJAPA",
    "state": "CHIAPAS",
    "lat": "16.84359",
    "lng": "-92.48134"
  },
  {
    "town": "TEOPISCA",
    "state": "CHIAPAS",
    "lat": "16.55969",
    "lng": "-92.51672"
  },
  {
    "town": "TILA",
    "state": "CHIAPAS",
    "lat": "17.35066",
    "lng": "-92.48176"
  },
  {
    "town": "TONALÁ",
    "state": "CHIAPAS",
    "lat": "16.08977",
    "lng": "-93.75489"
  },
  {
    "town": "TOTOLAPA",
    "state": "CHIAPAS",
    "lat": "16.51695",
    "lng": "-92.67359"
  },
  {
    "town": "LA TRINITARIA",
    "state": "CHIAPAS",
    "lat": "16.01755",
    "lng": "-91.93339"
  },
  {
    "town": "TUMBALÁ",
    "state": "CHIAPAS",
    "lat": "17.3079",
    "lng": "-92.27788"
  },
  {
    "town": "TUXTLA GUTIÉRREZ",
    "state": "CHIAPAS",
    "lat": "16.75973",
    "lng": "-93.11308"
  },
  {
    "town": "TUXTLA CHICO",
    "state": "CHIAPAS",
    "lat": "14.92411",
    "lng": "-92.18978"
  },
  {
    "town": "TUZANTÁN",
    "state": "CHIAPAS",
    "lat": "15.13561",
    "lng": "-92.42137"
  },
  {
    "town": "TZIMOL",
    "state": "CHIAPAS",
    "lat": "16.1212",
    "lng": "-92.24463"
  },
  {
    "town": "UNIÓN JUÁREZ",
    "state": "CHIAPAS",
    "lat": "15.06191",
    "lng": "-92.09668"
  },
  {
    "town": "VENUSTIANO CARRANZA",
    "state": "CHIAPAS",
    "lat": "16.32314",
    "lng": "-92.55844"
  },
  {
    "town": "VILLA CORZO",
    "state": "CHIAPAS",
    "lat": "16.11981",
    "lng": "-93.20835"
  },
  {
    "town": "VILLAFLORES",
    "state": "CHIAPAS",
    "lat": "16.34149",
    "lng": "-93.33191"
  },
  {
    "town": "YAJALÓN",
    "state": "CHIAPAS",
    "lat": "17.18519",
    "lng": "-92.32715"
  },
  {
    "town": "SAN LUCAS",
    "state": "CHIAPAS",
    "lat": "16.60112",
    "lng": "-92.69771"
  },
  {
    "town": "ZINACANTÁN",
    "state": "CHIAPAS",
    "lat": "16.72425",
    "lng": "-92.77572"
  },
  {
    "town": "SAN JUAN CANCUC",
    "state": "CHIAPAS",
    "lat": "16.94034",
    "lng": "-92.38839"
  },
  {
    "town": "ALDAMA",
    "state": "CHIAPAS",
    "lat": "16.91667",
    "lng": "-92.68333"
  },
  {
    "town": "BENEMÉRITO DE LAS AMÉRICAS",
    "state": "CHIAPAS",
    "lat": "16.51722",
    "lng": "-90.65306"
  },
  {
    "town": "MARAVILLA TENEJAPA",
    "state": "CHIAPAS",
    "lat": "16.20391",
    "lng": "-91.26093"
  },
  {
    "town": "MARQUÉS DE COMILLAS",
    "state": "CHIAPAS",
    "lat": "16.21471",
    "lng": "-90.75917"
  },
  {
    "town": "MONTECRISTO DE GUERRERO",
    "state": "CHIAPAS",
    "lat": "15.67526",
    "lng": "-92.64399"
  },
  {
    "town": "SAN ANDRÉS DURAZNAL",
    "state": "CHIAPAS",
    "lat": "17.15653",
    "lng": "-92.79606"
  },
  {
    "town": "SANTIAGO EL PINAR",
    "state": "CHIAPAS",
    "lat": "16.94838",
    "lng": "-92.72074"
  },
  {
    "town": "AHUMADA",
    "state": "CHIHUAHUA",
    "lat": "30.48174",
    "lng": "-106.48832"
  },
  {
    "town": "ALDAMA",
    "state": "CHIHUAHUA",
    "lat": "28.93636",
    "lng": "-105.71098"
  },
  {
    "town": "ALLENDE",
    "state": "CHIHUAHUA",
    "lat": "27.07787",
    "lng": "-105.28789"
  },
  {
    "town": "AQUILES SERDÁN",
    "state": "CHIHUAHUA",
    "lat": "28.58454",
    "lng": "-105.88108"
  },
  {
    "town": "ASCENSIÓN",
    "state": "CHIHUAHUA",
    "lat": "31.27914",
    "lng": "-107.73149"
  },
  {
    "town": "BACHÍNIVA",
    "state": "CHIHUAHUA",
    "lat": "28.85661",
    "lng": "-107.28856"
  },
  {
    "town": "BALLEZA",
    "state": "CHIHUAHUA",
    "lat": "26.73537",
    "lng": "-106.53591"
  },
  {
    "town": "BATOPILAS",
    "state": "CHIHUAHUA",
    "lat": "26.95272",
    "lng": "-107.71842"
  },
  {
    "town": "BOCOYNA",
    "state": "CHIHUAHUA",
    "lat": "27.78937",
    "lng": "-107.61036"
  },
  {
    "town": "BUENAVENTURA",
    "state": "CHIHUAHUA",
    "lat": "30.02116",
    "lng": "-107.19308"
  },
  {
    "town": "CAMARGO",
    "state": "CHIHUAHUA",
    "lat": "27.82905",
    "lng": "-104.78012"
  },
  {
    "town": "CARICHÍ",
    "state": "CHIHUAHUA",
    "lat": "27.74601",
    "lng": "-107.07795"
  },
  {
    "town": "CASAS GRANDES",
    "state": "CHIHUAHUA",
    "lat": "30.41552",
    "lng": "-107.91166"
  },
  {
    "town": "CORONADO",
    "state": "CHIHUAHUA",
    "lat": "26.6624",
    "lng": "-105.12093"
  },
  {
    "town": "COYAME DEL SOTOL",
    "state": "CHIHUAHUA",
    "lat": "29.68793",
    "lng": "-105.13855"
  },
  {
    "town": "LA CRUZ",
    "state": "CHIHUAHUA",
    "lat": "",
    "lng": ""
  },
  {
    "town": "CUAUHTÉMOC",
    "state": "CHIHUAHUA",
    "lat": "",
    "lng": ""
  },
  {
    "town": "CUSIHUIRIACHI",
    "state": "CHIHUAHUA",
    "lat": "",
    "lng": ""
  },
  {
    "town": "CHIHUAHUA",
    "state": "CHIHUAHUA",
    "lat": "",
    "lng": ""
  },
  {
    "town": "CHÍNIPAS",
    "state": "CHIHUAHUA",
    "lat": "",
    "lng": ""
  },
  {
    "town": "DELICIAS",
    "state": "CHIHUAHUA",
    "lat": "",
    "lng": ""
  },
  {
    "town": "DR. BELISARIO DOMÍNGUEZ",
    "state": "CHIHUAHUA",
    "lat": "",
    "lng": ""
  },
  {
    "town": "GALEANA",
    "state": "CHIHUAHUA",
    "lat": "",
    "lng": ""
  },
  {
    "town": "SANTA ISABEL",
    "state": "CHIHUAHUA",
    "lat": "",
    "lng": ""
  },
  {
    "town": "GÓMEZ FARÍAS",
    "state": "CHIHUAHUA",
    "lat": "",
    "lng": ""
  },
  {
    "town": "GRAN MORELOS",
    "state": "CHIHUAHUA",
    "lat": "",
    "lng": ""
  },
  {
    "town": "GUACHOCHI",
    "state": "CHIHUAHUA",
    "lat": "",
    "lng": ""
  },
  {
    "town": "GUADALUPE",
    "state": "CHIHUAHUA",
    "lat": "",
    "lng": ""
  },
  {
    "town": "GUADALUPE Y CALVO",
    "state": "CHIHUAHUA",
    "lat": "",
    "lng": ""
  },
  {
    "town": "GUAZAPARES",
    "state": "CHIHUAHUA",
    "lat": "",
    "lng": ""
  },
  {
    "town": "GUERRERO",
    "state": "CHIHUAHUA",
    "lat": "",
    "lng": ""
  },
  {
    "town": "HIDALGO DEL PARRAL",
    "state": "CHIHUAHUA",
    "lat": "",
    "lng": ""
  },
  {
    "town": "HUEJOTITÁN",
    "state": "CHIHUAHUA",
    "lat": "",
    "lng": ""
  },
  {
    "town": "IGNACIO ZARAGOZA",
    "state": "CHIHUAHUA",
    "lat": "",
    "lng": ""
  },
  {
    "town": "JANOS",
    "state": "CHIHUAHUA",
    "lat": "",
    "lng": ""
  },
  {
    "town": "JIMÉNEZ",
    "state": "CHIHUAHUA",
    "lat": "",
    "lng": ""
  },
  {
    "town": "JUÁREZ",
    "state": "CHIHUAHUA",
    "lat": "",
    "lng": ""
  },
  {
    "town": "JULIMES",
    "state": "CHIHUAHUA",
    "lat": "",
    "lng": ""
  },
  {
    "town": "LÓPEZ",
    "state": "CHIHUAHUA",
    "lat": "",
    "lng": ""
  },
  {
    "town": "MADERA",
    "state": "CHIHUAHUA",
    "lat": "",
    "lng": ""
  },
  {
    "town": "MAGUARICHI",
    "state": "CHIHUAHUA",
    "lat": "",
    "lng": ""
  },
  {
    "town": "MANUEL BENAVIDES",
    "state": "CHIHUAHUA",
    "lat": "",
    "lng": ""
  },
  {
    "town": "MATACHÍ",
    "state": "CHIHUAHUA",
    "lat": "",
    "lng": ""
  },
  {
    "town": "MATAMOROS",
    "state": "CHIHUAHUA",
    "lat": "",
    "lng": ""
  },
  {
    "town": "MEOQUI",
    "state": "CHIHUAHUA",
    "lat": "",
    "lng": ""
  },
  {
    "town": "MORELOS",
    "state": "CHIHUAHUA",
    "lat": "",
    "lng": ""
  },
  {
    "town": "MORIS",
    "state": "CHIHUAHUA",
    "lat": "",
    "lng": ""
  },
  {
    "town": "NAMIQUIPA",
    "state": "CHIHUAHUA",
    "lat": "",
    "lng": ""
  },
  {
    "town": "NONOAVA",
    "state": "CHIHUAHUA",
    "lat": "",
    "lng": ""
  },
  {
    "town": "NUEVO CASAS GRANDES",
    "state": "CHIHUAHUA",
    "lat": "",
    "lng": ""
  },
  {
    "town": "OCAMPO",
    "state": "CHIHUAHUA",
    "lat": "",
    "lng": ""
  },
  {
    "town": "OJINAGA",
    "state": "CHIHUAHUA",
    "lat": "",
    "lng": ""
  },
  {
    "town": "PRAXEDIS G. GUERRERO",
    "state": "CHIHUAHUA",
    "lat": "",
    "lng": ""
  },
  {
    "town": "RIVA PALACIO",
    "state": "CHIHUAHUA",
    "lat": "",
    "lng": ""
  },
  {
    "town": "ROSALES",
    "state": "CHIHUAHUA",
    "lat": "",
    "lng": ""
  },
  {
    "town": "ROSARIO",
    "state": "CHIHUAHUA",
    "lat": "",
    "lng": ""
  },
  {
    "town": "SAN FRANCISCO DE BORJA",
    "state": "CHIHUAHUA",
    "lat": "",
    "lng": ""
  },
  {
    "town": "SAN FRANCISCO DE CONCHOS",
    "state": "CHIHUAHUA",
    "lat": "",
    "lng": ""
  },
  {
    "town": "SAN FRANCISCO DEL ORO",
    "state": "CHIHUAHUA",
    "lat": "",
    "lng": ""
  },
  {
    "town": "SANTA BÁRBARA",
    "state": "CHIHUAHUA",
    "lat": "",
    "lng": ""
  },
  {
    "town": "SATEVÓ",
    "state": "CHIHUAHUA",
    "lat": "",
    "lng": ""
  },
  {
    "town": "SAUCILLO",
    "state": "CHIHUAHUA",
    "lat": "",
    "lng": ""
  },
  {
    "town": "TEMÓSACHIC",
    "state": "CHIHUAHUA",
    "lat": "",
    "lng": ""
  },
  {
    "town": "EL TULE",
    "state": "CHIHUAHUA",
    "lat": "",
    "lng": ""
  },
  {
    "town": "URIQUE",
    "state": "CHIHUAHUA",
    "lat": "",
    "lng": ""
  },
  {
    "town": "URUACHI",
    "state": "CHIHUAHUA",
    "lat": "",
    "lng": ""
  },
  {
    "town": "VALLE DE ZARAGOZA",
    "state": "CHIHUAHUA",
    "lat": "",
    "lng": ""
  },
  {
    "town": "AZCAPOTZALCO",
    "state": "CIUDAD DE MÉXICO",
    "lat": "",
    "lng": ""
  },
  {
    "town": "COYOACÁN",
    "state": "CIUDAD DE MÉXICO",
    "lat": "",
    "lng": ""
  },
  {
    "town": "CUAJIMALPA DE MORELOS",
    "state": "CIUDAD DE MÉXICO",
    "lat": "",
    "lng": ""
  },
  {
    "town": "GUSTAVO A. MADERO",
    "state": "CIUDAD DE MÉXICO",
    "lat": "",
    "lng": ""
  },
  {
    "town": "IZTACALCO",
    "state": "CIUDAD DE MÉXICO",
    "lat": "",
    "lng": ""
  },
  {
    "town": "IZTAPALAPA",
    "state": "CIUDAD DE MÉXICO",
    "lat": "",
    "lng": ""
  },
  {
    "town": "LA MAGDALENA CONTRERAS",
    "state": "CIUDAD DE MÉXICO",
    "lat": "",
    "lng": ""
  },
  {
    "town": "MILPA ALTA",
    "state": "CIUDAD DE MÉXICO",
    "lat": "",
    "lng": ""
  },
  {
    "town": "ÁLVARO OBREGÓN",
    "state": "CIUDAD DE MÉXICO",
    "lat": "",
    "lng": ""
  },
  {
    "town": "TLÁHUAC",
    "state": "CIUDAD DE MÉXICO",
    "lat": "",
    "lng": ""
  },
  {
    "town": "TLALPAN",
    "state": "CIUDAD DE MÉXICO",
    "lat": "",
    "lng": ""
  },
  {
    "town": "XOCHIMILCO",
    "state": "CIUDAD DE MÉXICO",
    "lat": "",
    "lng": ""
  },
  {
    "town": "BENITO JUÁREZ",
    "state": "CIUDAD DE MÉXICO",
    "lat": "",
    "lng": ""
  },
  {
    "town": "CUAUHTÉMOC",
    "state": "CIUDAD DE MÉXICO",
    "lat": "",
    "lng": ""
  },
  {
    "town": "MIGUEL HIDALGO",
    "state": "CIUDAD DE MÉXICO",
    "lat": "",
    "lng": ""
  },
  {
    "town": "VENUSTIANO CARRANZA",
    "state": "CIUDAD DE MÉXICO",
    "lat": "",
    "lng": ""
  },
  {
    "town": "ABASOLO",
    "state": "COAHULIA",
    "lat": "",
    "lng": ""
  },
  {
    "town": "ACUÑA",
    "state": "COAHULIA",
    "lat": "",
    "lng": ""
  },
  {
    "town": "ALLENDE",
    "state": "COAHULIA",
    "lat": "",
    "lng": ""
  },
  {
    "town": "ARTEAGA",
    "state": "COAHULIA",
    "lat": "",
    "lng": ""
  },
  {
    "town": "CANDELA",
    "state": "COAHULIA",
    "lat": "",
    "lng": ""
  },
  {
    "town": "CASTAÑOS",
    "state": "COAHULIA",
    "lat": "",
    "lng": ""
  },
  {
    "town": "CUATRO CIÉNEGAS",
    "state": "COAHULIA",
    "lat": "",
    "lng": ""
  },
  {
    "town": "ESCOBEDO",
    "state": "COAHULIA",
    "lat": "",
    "lng": ""
  },
  {
    "town": "FRANCISCO I. MADERO",
    "state": "COAHULIA",
    "lat": "",
    "lng": ""
  },
  {
    "town": "FRONTERA",
    "state": "COAHULIA",
    "lat": "",
    "lng": ""
  },
  {
    "town": "GENERAL CEPEDA",
    "state": "COAHULIA",
    "lat": "",
    "lng": ""
  },
  {
    "town": "GUERRERO",
    "state": "COAHULIA",
    "lat": "",
    "lng": ""
  },
  {
    "town": "HIDALGO",
    "state": "COAHULIA",
    "lat": "",
    "lng": ""
  },
  {
    "town": "JIMÉNEZ",
    "state": "COAHULIA",
    "lat": "",
    "lng": ""
  },
  {
    "town": "JUÁREZ",
    "state": "COAHULIA",
    "lat": "",
    "lng": ""
  },
  {
    "town": "LAMADRID",
    "state": "COAHULIA",
    "lat": "",
    "lng": ""
  },
  {
    "town": "MATAMOROS",
    "state": "COAHULIA",
    "lat": "",
    "lng": ""
  },
  {
    "town": "MONCLOVA",
    "state": "COAHULIA",
    "lat": "",
    "lng": ""
  },
  {
    "town": "MORELOS",
    "state": "COAHULIA",
    "lat": "",
    "lng": ""
  },
  {
    "town": "MÚZQUIZ",
    "state": "COAHULIA",
    "lat": "",
    "lng": ""
  },
  {
    "town": "NADADORES",
    "state": "COAHULIA",
    "lat": "",
    "lng": ""
  },
  {
    "town": "NAVA",
    "state": "COAHULIA",
    "lat": "",
    "lng": ""
  },
  {
    "town": "OCAMPO",
    "state": "COAHULIA",
    "lat": "",
    "lng": ""
  },
  {
    "town": "PARRAS",
    "state": "COAHULIA",
    "lat": "",
    "lng": ""
  },
  {
    "town": "PIEDRAS NEGRAS",
    "state": "COAHULIA",
    "lat": "",
    "lng": ""
  },
  {
    "town": "PROGRESO",
    "state": "COAHULIA",
    "lat": "",
    "lng": ""
  },
  {
    "town": "RAMOS ARIZPE",
    "state": "COAHULIA",
    "lat": "",
    "lng": ""
  },
  {
    "town": "SABINAS",
    "state": "COAHULIA",
    "lat": "",
    "lng": ""
  },
  {
    "town": "SACRAMENTO",
    "state": "COAHULIA",
    "lat": "",
    "lng": ""
  },
  {
    "town": "SALTILLO",
    "state": "COAHULIA",
    "lat": "",
    "lng": ""
  },
  {
    "town": "SAN BUENAVENTURA",
    "state": "COAHULIA",
    "lat": "",
    "lng": ""
  },
  {
    "town": "SAN JUAN DE SABINAS",
    "state": "COAHULIA",
    "lat": "",
    "lng": ""
  },
  {
    "town": "SAN PEDRO",
    "state": "COAHULIA",
    "lat": "",
    "lng": ""
  },
  {
    "town": "SIERRA MOJADA",
    "state": "COAHULIA",
    "lat": "",
    "lng": ""
  },
  {
    "town": "TORREÓN",
    "state": "COAHULIA",
    "lat": "",
    "lng": ""
  },
  {
    "town": "VIESCA",
    "state": "COAHULIA",
    "lat": "",
    "lng": ""
  },
  {
    "town": "VILLA UNIÓN",
    "state": "COAHULIA",
    "lat": "",
    "lng": ""
  },
  {
    "town": "ZARAGOZA",
    "state": "COAHULIA",
    "lat": "",
    "lng": ""
  },
  {
    "town": "ARMERÍA",
    "state": "COLIMA",
    "lat": "",
    "lng": ""
  },
  {
    "town": "COLIMA",
    "state": "COLIMA",
    "lat": "",
    "lng": ""
  },
  {
    "town": "COMALA",
    "state": "COLIMA",
    "lat": "",
    "lng": ""
  },
  {
    "town": "COQUIMATLÁN",
    "state": "COLIMA",
    "lat": "",
    "lng": ""
  },
  {
    "town": "CUAUHTÉMOC",
    "state": "COLIMA",
    "lat": "",
    "lng": ""
  },
  {
    "town": "IXTLAHUACÁN",
    "state": "COLIMA",
    "lat": "",
    "lng": ""
  },
  {
    "town": "MANZANILLO",
    "state": "COLIMA",
    "lat": "",
    "lng": ""
  },
  {
    "town": "MINATITLÁN",
    "state": "COLIMA",
    "lat": "",
    "lng": ""
  },
  {
    "town": "TECOMÁN",
    "state": "COLIMA",
    "lat": "",
    "lng": ""
  },
  {
    "town": "VILLA DE ÁLVAREZ",
    "state": "COLIMA",
    "lat": "",
    "lng": ""
  },
  {
    "town": "CANATLÁN",
    "state": "DURANGO",
    "lat": "",
    "lng": ""
  },
  {
    "town": "CANELAS",
    "state": "DURANGO",
    "lat": "",
    "lng": ""
  },
  {
    "town": "CONETO DE COMONFORT",
    "state": "DURANGO",
    "lat": "",
    "lng": ""
  },
  {
    "town": "CUENCAMÉ",
    "state": "DURANGO",
    "lat": "",
    "lng": ""
  },
  {
    "town": "DURANGO",
    "state": "DURANGO",
    "lat": "",
    "lng": ""
  },
  {
    "town": "GENERAL SIMÓN BOLÍVAR",
    "state": "DURANGO",
    "lat": "",
    "lng": ""
  },
  {
    "town": "GÓMEZ PALACIO",
    "state": "DURANGO",
    "lat": "",
    "lng": ""
  },
  {
    "town": "GUADALUPE VICTORIA",
    "state": "DURANGO",
    "lat": "",
    "lng": ""
  },
  {
    "town": "GUANACEVÍ",
    "state": "DURANGO",
    "lat": "",
    "lng": ""
  },
  {
    "town": "HIDALGO",
    "state": "DURANGO",
    "lat": "",
    "lng": ""
  },
  {
    "town": "INDÉ",
    "state": "DURANGO",
    "lat": "",
    "lng": ""
  },
  {
    "town": "LERDO",
    "state": "DURANGO",
    "lat": "",
    "lng": ""
  },
  {
    "town": "MAPIMÍ",
    "state": "DURANGO",
    "lat": "",
    "lng": ""
  },
  {
    "town": "MEZQUITAL",
    "state": "DURANGO",
    "lat": "",
    "lng": ""
  },
  {
    "town": "NAZAS",
    "state": "DURANGO",
    "lat": "",
    "lng": ""
  },
  {
    "town": "NOMBRE DE DIOS",
    "state": "DURANGO",
    "lat": "",
    "lng": ""
  },
  {
    "town": "OCAMPO",
    "state": "DURANGO",
    "lat": "",
    "lng": ""
  },
  {
    "town": "EL ORO",
    "state": "DURANGO",
    "lat": "",
    "lng": ""
  },
  {
    "town": "OTÁEZ",
    "state": "DURANGO",
    "lat": "",
    "lng": ""
  },
  {
    "town": "PÁNUCO DE CORONADO",
    "state": "DURANGO",
    "lat": "",
    "lng": ""
  },
  {
    "town": "PEÑÓN BLANCO",
    "state": "DURANGO",
    "lat": "",
    "lng": ""
  },
  {
    "town": "POANAS",
    "state": "DURANGO",
    "lat": "",
    "lng": ""
  },
  {
    "town": "PUEBLO NUEVO",
    "state": "DURANGO",
    "lat": "",
    "lng": ""
  },
  {
    "town": "RODEO",
    "state": "DURANGO",
    "lat": "",
    "lng": ""
  },
  {
    "town": "SAN BERNARDO",
    "state": "DURANGO",
    "lat": "",
    "lng": ""
  },
  {
    "town": "SAN DIMAS",
    "state": "DURANGO",
    "lat": "",
    "lng": ""
  },
  {
    "town": "SAN JUAN DE GUADALUPE",
    "state": "DURANGO",
    "lat": "",
    "lng": ""
  },
  {
    "town": "SAN JUAN DEL RÍO",
    "state": "DURANGO",
    "lat": "",
    "lng": ""
  },
  {
    "town": "SAN LUIS DEL CORDERO",
    "state": "DURANGO",
    "lat": "",
    "lng": ""
  },
  {
    "town": "SAN PEDRO DEL GALLO",
    "state": "DURANGO",
    "lat": "",
    "lng": ""
  },
  {
    "town": "SANTA CLARA",
    "state": "DURANGO",
    "lat": "",
    "lng": ""
  },
  {
    "town": "SANTIAGO PAPASQUIARO",
    "state": "DURANGO",
    "lat": "",
    "lng": ""
  },
  {
    "town": "SÚCHIL",
    "state": "DURANGO",
    "lat": "",
    "lng": ""
  },
  {
    "town": "TAMAZULA",
    "state": "DURANGO",
    "lat": "",
    "lng": ""
  },
  {
    "town": "TEPEHUANES",
    "state": "DURANGO",
    "lat": "",
    "lng": ""
  },
  {
    "town": "TLAHUALILO",
    "state": "DURANGO",
    "lat": "",
    "lng": ""
  },
  {
    "town": "TOPIA",
    "state": "DURANGO",
    "lat": "",
    "lng": ""
  },
  {
    "town": "VICENTE GUERRERO",
    "state": "DURANGO",
    "lat": "",
    "lng": ""
  },
  {
    "town": "NUEVO IDEAL",
    "state": "DURANGO",
    "lat": "",
    "lng": ""
  },
  {
    "town": "ABASOLO",
    "state": "GUANAJUATO",
    "lat": "",
    "lng": ""
  },
  {
    "town": "ACÁMBARO",
    "state": "GUANAJUATO",
    "lat": "",
    "lng": ""
  },
  {
    "town": "SAN MIGUEL DE ALLENDE",
    "state": "GUANAJUATO",
    "lat": "",
    "lng": ""
  },
  {
    "town": "APASEO EL ALTO",
    "state": "GUANAJUATO",
    "lat": "",
    "lng": ""
  },
  {
    "town": "APASEO EL GRANDE",
    "state": "GUANAJUATO",
    "lat": "",
    "lng": ""
  },
  {
    "town": "ATARJEA",
    "state": "GUANAJUATO",
    "lat": "",
    "lng": ""
  },
  {
    "town": "CELAYA",
    "state": "GUANAJUATO",
    "lat": "",
    "lng": ""
  },
  {
    "town": "MANUEL DOBLADO",
    "state": "GUANAJUATO",
    "lat": "",
    "lng": ""
  },
  {
    "town": "COMONFORT",
    "state": "GUANAJUATO",
    "lat": "",
    "lng": ""
  },
  {
    "town": "CORONEO",
    "state": "GUANAJUATO",
    "lat": "",
    "lng": ""
  },
  {
    "town": "CORTAZAR",
    "state": "GUANAJUATO",
    "lat": "",
    "lng": ""
  },
  {
    "town": "CUERÁMARO",
    "state": "GUANAJUATO",
    "lat": "",
    "lng": ""
  },
  {
    "town": "DOCTOR MORA",
    "state": "GUANAJUATO",
    "lat": "",
    "lng": ""
  },
  {
    "town": "DOLORES HIDALGO CUNA DE LA INDEPENDENCIA NACIONAL",
    "state": "GUANAJUATO",
    "lat": "",
    "lng": ""
  },
  {
    "town": "GUANAJUATO",
    "state": "GUANAJUATO",
    "lat": "",
    "lng": ""
  },
  {
    "town": "HUANÍMARO",
    "state": "GUANAJUATO",
    "lat": "",
    "lng": ""
  },
  {
    "town": "IRAPUATO",
    "state": "GUANAJUATO",
    "lat": "",
    "lng": ""
  },
  {
    "town": "JARAL DEL PROGRESO",
    "state": "GUANAJUATO",
    "lat": "",
    "lng": ""
  },
  {
    "town": "JERÉCUARO",
    "state": "GUANAJUATO",
    "lat": "",
    "lng": ""
  },
  {
    "town": "LEÓN",
    "state": "GUANAJUATO",
    "lat": "",
    "lng": ""
  },
  {
    "town": "MOROLEÓN",
    "state": "GUANAJUATO",
    "lat": "",
    "lng": ""
  },
  {
    "town": "OCAMPO",
    "state": "GUANAJUATO",
    "lat": "",
    "lng": ""
  },
  {
    "town": "PÉNJAMO",
    "state": "GUANAJUATO",
    "lat": "",
    "lng": ""
  },
  {
    "town": "PUEBLO NUEVO",
    "state": "GUANAJUATO",
    "lat": "",
    "lng": ""
  },
  {
    "town": "PURÍSIMA DEL RINCÓN",
    "state": "GUANAJUATO",
    "lat": "",
    "lng": ""
  },
  {
    "town": "ROMITA",
    "state": "GUANAJUATO",
    "lat": "",
    "lng": ""
  },
  {
    "town": "SALAMANCA",
    "state": "GUANAJUATO",
    "lat": "",
    "lng": ""
  },
  {
    "town": "SALVATIERRA",
    "state": "GUANAJUATO",
    "lat": "",
    "lng": ""
  },
  {
    "town": "SAN DIEGO DE LA UNIÓN",
    "state": "GUANAJUATO",
    "lat": "",
    "lng": ""
  },
  {
    "town": "SAN FELIPE",
    "state": "GUANAJUATO",
    "lat": "",
    "lng": ""
  },
  {
    "town": "SAN FRANCISCO DEL RINCÓN",
    "state": "GUANAJUATO",
    "lat": "",
    "lng": ""
  },
  {
    "town": "SAN JOSÉ ITURBIDE",
    "state": "GUANAJUATO",
    "lat": "",
    "lng": ""
  },
  {
    "town": "SAN LUIS DE LA PAZ",
    "state": "GUANAJUATO",
    "lat": "",
    "lng": ""
  },
  {
    "town": "SANTA CATARINA",
    "state": "GUANAJUATO",
    "lat": "",
    "lng": ""
  },
  {
    "town": "SANTA CRUZ DE JUVENTINO ROSAS",
    "state": "GUANAJUATO",
    "lat": "",
    "lng": ""
  },
  {
    "town": "SANTIAGO MARAVATÍO",
    "state": "GUANAJUATO",
    "lat": "",
    "lng": ""
  },
  {
    "town": "SILAO DE LA VICTORIA",
    "state": "GUANAJUATO",
    "lat": "",
    "lng": ""
  },
  {
    "town": "TARANDACUAO",
    "state": "GUANAJUATO",
    "lat": "",
    "lng": ""
  },
  {
    "town": "TARIMORO",
    "state": "GUANAJUATO",
    "lat": "",
    "lng": ""
  },
  {
    "town": "TIERRA BLANCA",
    "state": "GUANAJUATO",
    "lat": "",
    "lng": ""
  },
  {
    "town": "URIANGATO",
    "state": "GUANAJUATO",
    "lat": "",
    "lng": ""
  },
  {
    "town": "VALLE DE SANTIAGO",
    "state": "GUANAJUATO",
    "lat": "",
    "lng": ""
  },
  {
    "town": "VICTORIA",
    "state": "GUANAJUATO",
    "lat": "",
    "lng": ""
  },
  {
    "town": "VILLAGRÁN",
    "state": "GUANAJUATO",
    "lat": "",
    "lng": ""
  },
  {
    "town": "XICHÚ",
    "state": "GUANAJUATO",
    "lat": "",
    "lng": ""
  },
  {
    "town": "YURIRIA",
    "state": "GUANAJUATO",
    "lat": "",
    "lng": ""
  },
  {
    "town": "ACAPULCO DE JUÁREZ",
    "state": "GUERRERO",
    "lat": "",
    "lng": ""
  },
  {
    "town": "AHUACUOTZINGO",
    "state": "GUERRERO",
    "lat": "",
    "lng": ""
  },
  {
    "town": "AJUCHITLÁN DEL PROGRESO",
    "state": "GUERRERO",
    "lat": "",
    "lng": ""
  },
  {
    "town": "ALCOZAUCA DE GUERRERO",
    "state": "GUERRERO",
    "lat": "",
    "lng": ""
  },
  {
    "town": "ALPOYECA",
    "state": "GUERRERO",
    "lat": "",
    "lng": ""
  },
  {
    "town": "APAXTLA",
    "state": "GUERRERO",
    "lat": "",
    "lng": ""
  },
  {
    "town": "ARCELIA",
    "state": "GUERRERO",
    "lat": "",
    "lng": ""
  },
  {
    "town": "ATENANGO DEL RÍO",
    "state": "GUERRERO",
    "lat": "",
    "lng": ""
  },
  {
    "town": "ATLAMAJALCINGO DEL MONTE",
    "state": "GUERRERO",
    "lat": "",
    "lng": ""
  },
  {
    "town": "ATLIXTAC",
    "state": "GUERRERO",
    "lat": "",
    "lng": ""
  },
  {
    "town": "ATOYAC DE ÁLVAREZ",
    "state": "GUERRERO",
    "lat": "",
    "lng": ""
  },
  {
    "town": "AYUTLA DE LOS LIBRES",
    "state": "GUERRERO",
    "lat": "",
    "lng": ""
  },
  {
    "town": "AZOYÚ",
    "state": "GUERRERO",
    "lat": "",
    "lng": ""
  },
  {
    "town": "BENITO JUÁREZ",
    "state": "GUERRERO",
    "lat": "",
    "lng": ""
  },
  {
    "town": "BUENAVISTA DE CUÉLLAR",
    "state": "GUERRERO",
    "lat": "",
    "lng": ""
  },
  {
    "town": "COAHUAYUTLA DE JOSÉ MARÍA IZAZAGA",
    "state": "GUERRERO",
    "lat": "",
    "lng": ""
  },
  {
    "town": "COCULA",
    "state": "GUERRERO",
    "lat": "",
    "lng": ""
  },
  {
    "town": "COPALA",
    "state": "GUERRERO",
    "lat": "",
    "lng": ""
  },
  {
    "town": "COPALILLO",
    "state": "GUERRERO",
    "lat": "",
    "lng": ""
  },
  {
    "town": "COPANATOYAC",
    "state": "GUERRERO",
    "lat": "",
    "lng": ""
  },
  {
    "town": "COYUCA DE BENÍTEZ",
    "state": "GUERRERO",
    "lat": "",
    "lng": ""
  },
  {
    "town": "COYUCA DE CATALÁN",
    "state": "GUERRERO",
    "lat": "",
    "lng": ""
  },
  {
    "town": "CUAJINICUILAPA",
    "state": "GUERRERO",
    "lat": "",
    "lng": ""
  },
  {
    "town": "CUALÁC",
    "state": "GUERRERO",
    "lat": "",
    "lng": ""
  },
  {
    "town": "CUAUTEPEC",
    "state": "GUERRERO",
    "lat": "",
    "lng": ""
  },
  {
    "town": "CUETZALA DEL PROGRESO",
    "state": "GUERRERO",
    "lat": "",
    "lng": ""
  },
  {
    "town": "CUTZAMALA DE PINZÓN",
    "state": "GUERRERO",
    "lat": "18.66215",
    "lng": "-100.59902"
  },
  {
    "town": "CHILAPA DE ÁLVAREZ",
    "state": "GUERRERO",
    "lat": "17.59917",
    "lng": "-99.17389"
  },
  {
    "town": "CHILPANCINGO DE LOS BRAVO",
    "state": "GUERRERO",
    "lat": "17.5506",
    "lng": "-99.50578"
  },
  {
    "town": "FLORENCIO VILLARREAL",
    "state": "GUERRERO",
    "lat": "16.70143",
    "lng": "-99.15247"
  },
  {
    "town": "GENERAL CANUTO A. NERI",
    "state": "GUERRERO",
    "lat": "18.43072",
    "lng": "-100.1011"
  },
  {
    "town": "GENERAL HELIODORO CASTILLO",
    "state": "GUERRERO",
    "lat": "17.74297",
    "lng": "-100.02859"
  },
  {
    "town": "HUAMUXTITLÁN",
    "state": "GUERRERO",
    "lat": "17.78905",
    "lng": "-98.55569"
  },
  {
    "town": "HUITZUCO DE LOS FIGUEROA",
    "state": "GUERRERO",
    "lat": "18.29064",
    "lng": "-99.26361"
  },
  {
    "town": "IGUALA DE LA INDEPENDENCIA",
    "state": "GUERRERO",
    "lat": "18.34536",
    "lng": "-99.5413"
  },
  {
    "town": "IGUALAPA",
    "state": "GUERRERO",
    "lat": "16.75528",
    "lng": "-98.4837"
  },
  {
    "town": "IXCATEOPAN DE CUAUHTÉMOC",
    "state": "GUERRERO",
    "lat": "18.47442",
    "lng": "-99.79024"
  },
  {
    "town": "ZIHUATANEJO DE AZUETA",
    "state": "GUERRERO",
    "lat": "17.64344",
    "lng": "-101.55212"
  },
  {
    "town": "JUAN R. ESCUDERO",
    "state": "GUERRERO",
    "lat": "17.1334",
    "lng": "-99.50871"
  },
  {
    "town": "LEONARDO BRAVO",
    "state": "GUERRERO",
    "lat": "17.62143",
    "lng": "-99.83173"
  },
  {
    "town": "MALINALTEPEC",
    "state": "GUERRERO",
    "lat": "17.17825",
    "lng": "-98.70573"
  },
  {
    "town": "MÁRTIR DE CUILAPAN",
    "state": "GUERRERO",
    "lat": "17.81608",
    "lng": "-99.34807"
  },
  {
    "town": "METLATÓNOC",
    "state": "GUERRERO",
    "lat": "17.12361",
    "lng": "-98.55806"
  },
  {
    "town": "MOCHITLÁN",
    "state": "GUERRERO",
    "lat": "17.38348",
    "lng": "-99.36727"
  },
  {
    "town": "OLINALÁ",
    "state": "GUERRERO",
    "lat": "17.86441",
    "lng": "-98.75153"
  },
  {
    "town": "OMETEPEC",
    "state": "GUERRERO",
    "lat": "16.68044",
    "lng": "-98.38266"
  },
  {
    "town": "PEDRO ASCENCIO ALQUISIRAS",
    "state": "GUERRERO",
    "lat": "18.5473",
    "lng": "-99.86351"
  },
  {
    "town": "PETATLÁN",
    "state": "GUERRERO",
    "lat": "17.60821",
    "lng": "-101.17024"
  },
  {
    "town": "PILCAYA",
    "state": "GUERRERO",
    "lat": "18.71128",
    "lng": "-99.62655"
  },
  {
    "town": "PUNGARABATO",
    "state": "GUERRERO",
    "lat": "18.34938",
    "lng": "-100.6389"
  },
  {
    "town": "QUECHULTENANGO",
    "state": "GUERRERO",
    "lat": "17.34451",
    "lng": "-99.17546"
  },
  {
    "town": "SAN LUIS ACATLÁN",
    "state": "GUERRERO",
    "lat": "16.90204",
    "lng": "-98.6967"
  },
  {
    "town": "SAN MARCOS",
    "state": "GUERRERO",
    "lat": "16.77271",
    "lng": "-99.37463"
  },
  {
    "town": "SAN MIGUEL TOTOLAPAN",
    "state": "GUERRERO",
    "lat": "17.86381",
    "lng": "-100.29598"
  },
  {
    "town": "TAXCO DE ALARCÓN",
    "state": "GUERRERO",
    "lat": "18.55462",
    "lng": "-99.60592"
  },
  {
    "town": "TECOANAPA",
    "state": "GUERRERO",
    "lat": "16.97285",
    "lng": "-99.26532"
  },
  {
    "town": "TÉCPAN DE GALEANA",
    "state": "GUERRERO",
    "lat": "17.37695",
    "lng": "-100.7626"
  },
  {
    "town": "TELOLOAPAN",
    "state": "GUERRERO",
    "lat": "18.35802",
    "lng": "-99.93621"
  },
  {
    "town": "TEPECOACUILCO DE TRUJANO",
    "state": "GUERRERO",
    "lat": "18.15105",
    "lng": "-99.473"
  },
  {
    "town": "TETIPAC",
    "state": "GUERRERO",
    "lat": "18.65209",
    "lng": "-99.67783"
  },
  {
    "town": "TIXTLA DE GUERRERO",
    "state": "GUERRERO",
    "lat": "17.56732",
    "lng": "-99.39799"
  },
  {
    "town": "TLACOACHISTLAHUACA",
    "state": "GUERRERO",
    "lat": "16.92618",
    "lng": "-98.25896"
  },
  {
    "town": "TLACOAPA",
    "state": "GUERRERO",
    "lat": "17.24642",
    "lng": "-98.76947"
  },
  {
    "town": "TLALCHAPA",
    "state": "GUERRERO",
    "lat": "18.42915",
    "lng": "-100.45396"
  },
  {
    "town": "TLALIXTAQUILLA DE MALDONADO",
    "state": "GUERRERO",
    "lat": "17.57501",
    "lng": "-98.39339"
  },
  {
    "town": "TLAPA DE COMONFORT",
    "state": "GUERRERO",
    "lat": "17.54528",
    "lng": "-98.57599"
  },
  {
    "town": "TLAPEHUALA",
    "state": "GUERRERO",
    "lat": "18.27215",
    "lng": "-100.45164"
  },
  {
    "town": "LA UNIÓN DE ISIDORO MONTES DE OCA",
    "state": "GUERRERO",
    "lat": "18.00049",
    "lng": "-101.86699"
  },
  {
    "town": "XALPATLÁHUAC",
    "state": "GUERRERO",
    "lat": "17.38885",
    "lng": "-98.56011"
  },
  {
    "town": "XOCHIHUEHUETLÁN",
    "state": "GUERRERO",
    "lat": "17.89242",
    "lng": "-98.47886"
  },
  {
    "town": "XOCHISTLAHUACA",
    "state": "GUERRERO",
    "lat": "16.8168",
    "lng": "-98.18687"
  },
  {
    "town": "ZAPOTITLÁN TABLAS",
    "state": "GUERRERO",
    "lat": "17.397",
    "lng": "-98.79763"
  },
  {
    "town": "ZIRÁNDARO",
    "state": "GUERRERO",
    "lat": "18.36395",
    "lng": "-101.19046"
  },
  {
    "town": "ZITLALA",
    "state": "GUERRERO",
    "lat": "17.71969",
    "lng": "-99.19569"
  },
  {
    "town": "EDUARDO NERI",
    "state": "GUERRERO",
    "lat": "17.77201",
    "lng": "-99.60566"
  },
  {
    "town": "ACATEPEC",
    "state": "GUERRERO",
    "lat": "17.17482",
    "lng": "-98.97603"
  },
  {
    "town": "MARQUELIA",
    "state": "GUERRERO",
    "lat": "16.62383",
    "lng": "-98.80066"
  },
  {
    "town": "COCHOAPA EL GRANDE",
    "state": "GUERRERO",
    "lat": "17.11311",
    "lng": "-98.41393"
  },
  {
    "town": "JOSÉ JOAQUÍN DE HERRERA",
    "state": "GUERRERO",
    "lat": "17.44078",
    "lng": "-98.99955"
  },
  {
    "town": "JUCHITÁN",
    "state": "GUERRERO",
    "lat": "16.58311",
    "lng": "-98.6728"
  },
  {
    "town": "ILIATENCO",
    "state": "GUERRERO",
    "lat": "17.03524",
    "lng": "-98.67721"
  },
  {
    "town": "ACATLÁN",
    "state": "HIDALGO",
    "lat": "20.20857",
    "lng": "-98.44324"
  },
  {
    "town": "ACAXOCHITLÁN",
    "state": "HIDALGO",
    "lat": "20.16674",
    "lng": "-98.18971"
  },
  {
    "town": "ACTOPAN",
    "state": "HIDALGO",
    "lat": "20.26961",
    "lng": "-98.94377"
  },
  {
    "town": "AGUA BLANCA DE ITURBIDE",
    "state": "HIDALGO",
    "lat": "20.35998",
    "lng": "-98.36979"
  },
  {
    "town": "AJACUBA",
    "state": "HIDALGO",
    "lat": "20.14326",
    "lng": "-99.06141"
  },
  {
    "town": "ALFAJAYUCAN",
    "state": "HIDALGO",
    "lat": "20.41183",
    "lng": "-99.38388"
  },
  {
    "town": "ALMOLOYA",
    "state": "HIDALGO",
    "lat": "19.74335",
    "lng": "-98.33939"
  },
  {
    "town": "APAN",
    "state": "HIDALGO",
    "lat": "19.73895",
    "lng": "-98.43331"
  },
  {
    "town": "EL ARENAL",
    "state": "HIDALGO",
    "lat": "20.21572",
    "lng": "-98.8884"
  },
  {
    "town": "ATITALAQUIA",
    "state": "HIDALGO",
    "lat": "20.05691",
    "lng": "-99.21779"
  },
  {
    "town": "ATLAPEXCO",
    "state": "HIDALGO",
    "lat": "21.02507",
    "lng": "-98.36834"
  },
  {
    "town": "ATOTONILCO EL GRANDE",
    "state": "HIDALGO",
    "lat": "20.34664",
    "lng": "-98.67363"
  },
  {
    "town": "ATOTONILCO DE TULA",
    "state": "HIDALGO",
    "lat": "19.97025",
    "lng": "-99.23866"
  },
  {
    "town": "CALNALI",
    "state": "HIDALGO",
    "lat": "20.90221",
    "lng": "-98.57029"
  },
  {
    "town": "CARDONAL",
    "state": "HIDALGO",
    "lat": "20.62782",
    "lng": "-99.07353"
  },
  {
    "town": "CUAUTEPEC DE HINOJOSA",
    "state": "HIDALGO",
    "lat": "19.98227",
    "lng": "-98.28683"
  },
  {
    "town": "CHAPANTONGO",
    "state": "HIDALGO",
    "lat": "20.26532",
    "lng": "-99.46581"
  },
  {
    "town": "CHAPULHUACÁN",
    "state": "HIDALGO",
    "lat": "21.14413",
    "lng": "-98.93088"
  },
  {
    "town": "CHILCUAUTLA",
    "state": "HIDALGO",
    "lat": "20.34166",
    "lng": "-99.23429"
  },
  {
    "town": "ELOXOCHITLÁN",
    "state": "HIDALGO",
    "lat": "20.72703",
    "lng": "-98.87693"
  },
  {
    "town": "EMILIANO ZAPATA",
    "state": "HIDALGO",
    "lat": "19.66143",
    "lng": "-98.56678"
  },
  {
    "town": "EPAZOYUCAN",
    "state": "HIDALGO",
    "lat": "20.02654",
    "lng": "-98.63802"
  },
  {
    "town": "FRANCISCO I. MADERO",
    "state": "HIDALGO",
    "lat": "20.23866",
    "lng": "-99.07889"
  },
  {
    "town": "HUASCA DE OCAMPO",
    "state": "HIDALGO",
    "lat": "20.23121",
    "lng": "-98.54864"
  },
  {
    "town": "HUAUTLA",
    "state": "HIDALGO",
    "lat": "21.04268",
    "lng": "-98.24785"
  },
  {
    "town": "HUAZALINGO",
    "state": "HIDALGO",
    "lat": "20.99864",
    "lng": "-98.48989"
  },
  {
    "town": "HUEHUETLA",
    "state": "HIDALGO",
    "lat": "20.53204",
    "lng": "-98.03311"
  },
  {
    "town": "HUEJUTLA DE REYES",
    "state": "HIDALGO",
    "lat": "21.14",
    "lng": "-98.41944"
  },
  {
    "town": "HUICHAPAN",
    "state": "HIDALGO",
    "lat": "20.38929",
    "lng": "-99.65197"
  },
  {
    "town": "IXMIQUILPAN",
    "state": "HIDALGO",
    "lat": "20.54335",
    "lng": "-99.19505"
  },
  {
    "town": "JACALA DE LEDEZMA",
    "state": "HIDALGO",
    "lat": "20.96723",
    "lng": "-99.14918"
  },
  {
    "town": "JALTOCÁN",
    "state": "HIDALGO",
    "lat": "21.15063",
    "lng": "-98.52451"
  },
  {
    "town": "JUÁREZ HIDALGO",
    "state": "HIDALGO",
    "lat": "20.83296",
    "lng": "-98.83699"
  },
  {
    "town": "LOLOTLA",
    "state": "HIDALGO",
    "lat": "21.00922",
    "lng": "-98.73116"
  },
  {
    "town": "METEPEC",
    "state": "HIDALGO",
    "lat": "20.26375",
    "lng": "-98.34366"
  },
  {
    "town": "SAN AGUSTÍN METZQUITITLÁN",
    "state": "HIDALGO",
    "lat": "20.50319",
    "lng": "-98.62484"
  },
  {
    "town": "METZTITLÁN",
    "state": "HIDALGO",
    "lat": "20.56753",
    "lng": "-98.79696"
  },
  {
    "town": "MINERAL DEL CHICO",
    "state": "HIDALGO",
    "lat": "20.21974",
    "lng": "-98.74858"
  },
  {
    "town": "MINERAL DEL MONTE",
    "state": "HIDALGO",
    "lat": "20.14538",
    "lng": "-98.66527"
  },
  {
    "town": "LA MISIÓN",
    "state": "HIDALGO",
    "lat": "21.06984",
    "lng": "-99.07146"
  },
  {
    "town": "MIXQUIAHUALA DE JUÁREZ",
    "state": "HIDALGO",
    "lat": "20.23031",
    "lng": "-99.21396"
  },
  {
    "town": "MOLANGO DE ESCAMILLA",
    "state": "HIDALGO",
    "lat": "20.84675",
    "lng": "-98.76108"
  },
  {
    "town": "NICOLÁS FLORES",
    "state": "HIDALGO",
    "lat": "20.79432",
    "lng": "-99.17321"
  },
  {
    "town": "NOPALA DE VILLAGRÁN",
    "state": "HIDALGO",
    "lat": "20.23119",
    "lng": "-99.68153"
  },
  {
    "town": "OMITLÁN DE JUÁREZ",
    "state": "HIDALGO",
    "lat": "20.17845",
    "lng": "-98.63631"
  },
  {
    "town": "SAN FELIPE ORIZATLÁN",
    "state": "HIDALGO",
    "lat": "21.17109",
    "lng": "-98.60744"
  },
  {
    "town": "PACULA",
    "state": "HIDALGO",
    "lat": "20.97058",
    "lng": "-99.32162"
  },
  {
    "town": "PACHUCA DE SOTO",
    "state": "HIDALGO",
    "lat": "20.11697",
    "lng": "-98.73329"
  },
  {
    "town": "PISAFLORES",
    "state": "HIDALGO",
    "lat": "21.2276",
    "lng": "-98.99502"
  },
  {
    "town": "PROGRESO DE OBREGÓN",
    "state": "HIDALGO",
    "lat": "20.29199",
    "lng": "-99.18907"
  },
  {
    "town": "MINERAL DE LA REFORMA",
    "state": "HIDALGO",
    "lat": "20.07439",
    "lng": "-98.72995"
  },
  {
    "town": "SAN AGUSTÍN TLAXIACA",
    "state": "HIDALGO",
    "lat": "20.10787",
    "lng": "-98.90914"
  },
  {
    "town": "SAN BARTOLO TUTOTEPEC",
    "state": "HIDALGO",
    "lat": "20.4518",
    "lng": "-98.19931"
  },
  {
    "town": "SAN SALVADOR",
    "state": "HIDALGO",
    "lat": "20.29278",
    "lng": "-99.03285"
  },
  {
    "town": "SANTIAGO DE ANAYA",
    "state": "HIDALGO",
    "lat": "20.40817",
    "lng": "-98.97625"
  },
  {
    "town": "SANTIAGO TULANTEPEC DE LUGO GUERRERO",
    "state": "HIDALGO",
    "lat": "20.04206",
    "lng": "-98.39161"
  },
  {
    "town": "SINGUILUCAN",
    "state": "HIDALGO",
    "lat": "19.98964",
    "lng": "-98.51923"
  },
  {
    "town": "TASQUILLO",
    "state": "HIDALGO",
    "lat": "20.54698",
    "lng": "-99.34562"
  },
  {
    "town": "TECOZAUTLA",
    "state": "HIDALGO",
    "lat": "20.53302",
    "lng": "-99.64662"
  },
  {
    "town": "TENANGO DE DORIA",
    "state": "HIDALGO",
    "lat": "20.35396",
    "lng": "-98.20492"
  },
  {
    "town": "TEPEAPULCO",
    "state": "HIDALGO",
    "lat": "19.8047",
    "lng": "-98.50153"
  },
  {
    "town": "TEPEHUACÁN DE GUERRERO",
    "state": "HIDALGO",
    "lat": "21.06676",
    "lng": "-98.84444"
  },
  {
    "town": "TEPEJI DEL RÍO DE OCAMPO",
    "state": "HIDALGO",
    "lat": "19.90481",
    "lng": "-99.34379"
  },
  {
    "town": "TEPETITLÁN",
    "state": "HIDALGO",
    "lat": "20.18301",
    "lng": "-99.38882"
  },
  {
    "town": "TETEPANGO",
    "state": "HIDALGO",
    "lat": "20.1158",
    "lng": "-99.16348"
  },
  {
    "town": "VILLA DE TEZONTEPEC",
    "state": "HIDALGO",
    "lat": "19.90505",
    "lng": "-98.80703"
  },
  {
    "town": "TEZONTEPEC DE ALDAMA",
    "state": "HIDALGO",
    "lat": "20.17253",
    "lng": "-99.28099"
  },
  {
    "town": "TIANGUISTENGO",
    "state": "HIDALGO",
    "lat": "20.78328",
    "lng": "-98.55253"
  },
  {
    "town": "TIZAYUCA",
    "state": "HIDALGO",
    "lat": "19.83664",
    "lng": "-98.97772"
  },
  {
    "town": "TLAHUELILPAN",
    "state": "HIDALGO",
    "lat": "20.13087",
    "lng": "-99.22677"
  },
  {
    "town": "TLAHUILTEPA",
    "state": "HIDALGO",
    "lat": "20.89805",
    "lng": "-98.96263"
  },
  {
    "town": "TLANALAPA",
    "state": "HIDALGO",
    "lat": "19.82525",
    "lng": "-98.59449"
  },
  {
    "town": "TLANCHINOL",
    "state": "HIDALGO",
    "lat": "21.03005",
    "lng": "-98.64996"
  },
  {
    "town": "TLAXCOAPAN",
    "state": "HIDALGO",
    "lat": "20.09503",
    "lng": "-99.22654"
  },
  {
    "town": "TOLCAYUCA",
    "state": "HIDALGO",
    "lat": "19.94112",
    "lng": "-98.91908"
  },
  {
    "town": "TULA DE ALLENDE",
    "state": "HIDALGO",
    "lat": "20.05161",
    "lng": "-99.34397"
  },
  {
    "town": "TULANCINGO DE BRAVO",
    "state": "HIDALGO",
    "lat": "20.08355",
    "lng": "-98.36288"
  },
  {
    "town": "XOCHIATIPAN",
    "state": "HIDALGO",
    "lat": "20.85794",
    "lng": "-98.28206"
  },
  {
    "town": "XOCHICOATLÁN",
    "state": "HIDALGO",
    "lat": "20.79715",
    "lng": "-98.63718"
  },
  {
    "town": "YAHUALICA",
    "state": "HIDALGO",
    "lat": "20.91485",
    "lng": "-98.37868"
  },
  {
    "town": "ZACUALTIPÁN DE ÁNGELES",
    "state": "HIDALGO",
    "lat": "20.65608",
    "lng": "-98.59353"
  },
  {
    "town": "ZAPOTLÁN DE JUÁREZ",
    "state": "HIDALGO",
    "lat": "19.99236",
    "lng": "-98.86078"
  },
  {
    "town": "ZEMPOALA",
    "state": "HIDALGO",
    "lat": "19.9385",
    "lng": "-98.66871"
  },
  {
    "town": "ZIMAPÁN",
    "state": "HIDALGO",
    "lat": "20.7438",
    "lng": "-99.3554"
  },
  {
    "town": "ACATIC",
    "state": "JALISCO",
    "lat": "20.7642",
    "lng": "-102.91522"
  },
  {
    "town": "ACATLÁN DE JUÁREZ",
    "state": "JALISCO",
    "lat": "20.42408",
    "lng": "-103.60142"
  },
  {
    "town": "AHUALULCO DE MERCADO",
    "state": "JALISCO",
    "lat": "20.69928",
    "lng": "-103.95564"
  },
  {
    "town": "AMACUECA",
    "state": "JALISCO",
    "lat": "19.98784",
    "lng": "-103.61351"
  },
  {
    "town": "AMATITÁN",
    "state": "JALISCO",
    "lat": "20.85789",
    "lng": "-103.72437"
  },
  {
    "town": "AMECA",
    "state": "JALISCO",
    "lat": "20.53572",
    "lng": "-104.05076"
  },
  {
    "town": "SAN JUANITO DE ESCOBEDO",
    "state": "JALISCO",
    "lat": "20.80157",
    "lng": "-104.02149"
  },
  {
    "town": "ARANDAS",
    "state": "JALISCO",
    "lat": "20.76204",
    "lng": "-102.30385"
  },
  {
    "town": "EL ARENAL",
    "state": "JALISCO",
    "lat": "20.75462",
    "lng": "-103.65901"
  },
  {
    "town": "ATEMAJAC DE BRIZUELA",
    "state": "JALISCO",
    "lat": "20.14268",
    "lng": "-103.71175"
  },
  {
    "town": "ATENGO",
    "state": "JALISCO",
    "lat": "20.29434",
    "lng": "-104.26222"
  },
  {
    "town": "ATENGUILLO",
    "state": "JALISCO",
    "lat": "20.3706",
    "lng": "-104.51252"
  },
  {
    "town": "ATOTONILCO EL ALTO",
    "state": "JALISCO",
    "lat": "20.54993",
    "lng": "-102.5367"
  },
  {
    "town": "ATOYAC",
    "state": "JALISCO",
    "lat": "19.98456",
    "lng": "-103.46975"
  },
  {
    "town": "AUTLÁN DE NAVARRO",
    "state": "JALISCO",
    "lat": "19.76822",
    "lng": "-104.36664"
  },
  {
    "town": "AYOTLÁN",
    "state": "JALISCO",
    "lat": "20.49393",
    "lng": "-102.35079"
  },
  {
    "town": "AYUTLA",
    "state": "JALISCO",
    "lat": "20.06523",
    "lng": "-104.40009"
  },
  {
    "town": "LA BARCA",
    "state": "JALISCO",
    "lat": "20.35193",
    "lng": "-102.5263"
  },
  {
    "town": "BOLAÑOS",
    "state": "JALISCO",
    "lat": "21.84",
    "lng": "-103.93"
  },
  {
    "town": "CABO CORRIENTES",
    "state": "JALISCO",
    "lat": "20.34394",
    "lng": "-105.39322"
  },
  {
    "town": "CASIMIRO CASTILLO",
    "state": "JALISCO",
    "lat": "19.59573",
    "lng": "-104.479"
  },
  {
    "town": "CIHUATLÁN",
    "state": "JALISCO",
    "lat": "19.2366",
    "lng": "-104.56512"
  },
  {
    "town": "ZAPOTLÁN EL GRANDE",
    "state": "JALISCO",
    "lat": "19.70466",
    "lng": "-103.4617"
  },
  {
    "town": "COCULA",
    "state": "JALISCO",
    "lat": "20.36517",
    "lng": "-103.82215"
  },
  {
    "town": "COLOTLÁN",
    "state": "JALISCO",
    "lat": "22.08651",
    "lng": "-103.28631"
  },
  {
    "town": "CONCEPCIÓN DE BUENOS AIRES",
    "state": "JALISCO",
    "lat": "19.99064",
    "lng": "-103.22025"
  },
  {
    "town": "CUAUTITLÁN DE GARCÍA BARRAGÁN",
    "state": "JALISCO",
    "lat": "19.43254",
    "lng": "-104.29339"
  },
  {
    "town": "CUAUTLA",
    "state": "JALISCO",
    "lat": "20.20476",
    "lng": "-104.47164"
  },
  {
    "town": "CUQUÍO",
    "state": "JALISCO",
    "lat": "20.96401",
    "lng": "-103.03733"
  },
  {
    "town": "CHAPALA",
    "state": "JALISCO",
    "lat": "20.26067",
    "lng": "-103.02702"
  },
  {
    "town": "CHIMALTITÁN",
    "state": "JALISCO",
    "lat": "21.74817",
    "lng": "-103.69461"
  },
  {
    "town": "CHIQUILISTLÁN",
    "state": "JALISCO",
    "lat": "20.08563",
    "lng": "-103.894"
  },
  {
    "town": "DEGOLLADO",
    "state": "JALISCO",
    "lat": "20.45399",
    "lng": "-102.14994"
  },
  {
    "town": "EJUTLA",
    "state": "JALISCO",
    "lat": "19.91611",
    "lng": "-104.08422"
  },
  {
    "town": "ENCARNACIÓN DE DÍAZ",
    "state": "JALISCO",
    "lat": "21.58032",
    "lng": "-102.17733"
  },
  {
    "town": "ETZATLÁN",
    "state": "JALISCO",
    "lat": "20.76702",
    "lng": "-104.10794"
  },
  {
    "town": "EL GRULLO",
    "state": "JALISCO",
    "lat": "19.79393",
    "lng": "-104.20162"
  },
  {
    "town": "GUACHINANGO",
    "state": "JALISCO",
    "lat": "20.67078",
    "lng": "-104.41341"
  },
  {
    "town": "GUADALAJARA",
    "state": "JALISCO",
    "lat": "20.66682",
    "lng": "-103.39182"
  },
  {
    "town": "HOSTOTIPAQUILLO",
    "state": "JALISCO",
    "lat": "21.0616",
    "lng": "-104.09175"
  },
  {
    "town": "HUEJÚCAR",
    "state": "JALISCO",
    "lat": "22.33409",
    "lng": "-103.25253"
  },
  {
    "town": "HUEJUQUILLA EL ALTO",
    "state": "JALISCO",
    "lat": "22.58053",
    "lng": "-103.90353"
  },
  {
    "town": "LA HUERTA",
    "state": "JALISCO",
    "lat": "19.50269",
    "lng": "-104.85372"
  },
  {
    "town": "IXTLAHUACÁN DE LOS MEMBRILLOS",
    "state": "JALISCO",
    "lat": "20.40211",
    "lng": "-103.20482"
  },
  {
    "town": "IXTLAHUACÁN DEL RÍO",
    "state": "JALISCO",
    "lat": "20.88048",
    "lng": "-103.21472"
  },
  {
    "town": "JALOSTOTITLÁN",
    "state": "JALISCO",
    "lat": "21.18912",
    "lng": "-102.48234"
  },
  {
    "town": "JAMAY",
    "state": "JALISCO",
    "lat": "20.2762",
    "lng": "-102.67298"
  },
  {
    "town": "JESÚS MARÍA",
    "state": "JALISCO",
    "lat": "20.62517",
    "lng": "-102.13422"
  },
  {
    "town": "JILOTLÁN DE LOS DOLORES",
    "state": "JALISCO",
    "lat": "19.33122",
    "lng": "-102.91913"
  },
  {
    "town": "JOCOTEPEC",
    "state": "JALISCO",
    "lat": "20.29063",
    "lng": "-103.41594"
  },
  {
    "town": "JUANACATLÁN",
    "state": "JALISCO",
    "lat": "20.49874",
    "lng": "-103.14939"
  },
  {
    "town": "JUCHITLÁN",
    "state": "JALISCO",
    "lat": "20.0558",
    "lng": "-104.03536"
  },
  {
    "town": "LAGOS DE MORENO",
    "state": "JALISCO",
    "lat": "21.35666",
    "lng": "-101.93768"
  },
  {
    "town": "EL LIMÓN",
    "state": "JALISCO",
    "lat": "19.82954",
    "lng": "-104.11223"
  },
  {
    "town": "MAGDALENA",
    "state": "JALISCO",
    "lat": "20.91708",
    "lng": "-104.00834"
  },
  {
    "town": "SANTA MARÍA DEL ORO",
    "state": "JALISCO",
    "lat": "19.53918",
    "lng": "-102.84977"
  },
  {
    "town": "LA MANZANILLA DE LA PAZ",
    "state": "JALISCO",
    "lat": "20.02015",
    "lng": "-103.11429"
  },
  {
    "town": "MASCOTA",
    "state": "JALISCO",
    "lat": "20.54942",
    "lng": "-104.80525"
  },
  {
    "town": "MAZAMITLA",
    "state": "JALISCO",
    "lat": "19.88653",
    "lng": "-103.05118"
  },
  {
    "town": "MEXTICACÁN",
    "state": "JALISCO",
    "lat": "21.26708",
    "lng": "-102.75511"
  },
  {
    "town": "MEZQUITIC",
    "state": "JALISCO",
    "lat": "22.20609",
    "lng": "-104.04531"
  },
  {
    "town": "MIXTLÁN",
    "state": "JALISCO",
    "lat": "20.48371",
    "lng": "-104.44443"
  },
  {
    "town": "OCOTLÁN",
    "state": "JALISCO",
    "lat": "20.3553",
    "lng": "-102.77358"
  },
  {
    "town": "OJUELOS DE JALISCO",
    "state": "JALISCO",
    "lat": "21.81374",
    "lng": "-101.68523"
  },
  {
    "town": "PIHUAMO",
    "state": "JALISCO",
    "lat": "19.18926",
    "lng": "-103.37782"
  },
  {
    "town": "PONCITLÁN",
    "state": "JALISCO",
    "lat": "20.35819",
    "lng": "-102.92517"
  },
  {
    "town": "PUERTO VALLARTA",
    "state": "JALISCO",
    "lat": "20.617",
    "lng": "-105.23018"
  },
  {
    "town": "VILLA PURIFICACIÓN",
    "state": "JALISCO",
    "lat": "19.78597",
    "lng": "-104.70764"
  },
  {
    "town": "QUITUPAN",
    "state": "JALISCO",
    "lat": "19.79371",
    "lng": "-102.88026"
  },
  {
    "town": "EL SALTO",
    "state": "JALISCO",
    "lat": "20.52877",
    "lng": "-103.22784"
  },
  {
    "town": "SAN CRISTÓBAL DE LA BARRANCA",
    "state": "JALISCO",
    "lat": "21.05599",
    "lng": "-103.45914"
  },
  {
    "town": "SAN DIEGO DE ALEJANDRÍA",
    "state": "JALISCO",
    "lat": "20.97238",
    "lng": "-102.03342"
  },
  {
    "town": "SAN JUAN DE LOS LAGOS",
    "state": "JALISCO",
    "lat": "21.26847",
    "lng": "-102.29882"
  },
  {
    "town": "SAN JULIÁN",
    "state": "JALISCO",
    "lat": "20.99017",
    "lng": "-102.16181"
  },
  {
    "town": "SAN MARCOS",
    "state": "JALISCO",
    "lat": "20.28333",
    "lng": "-103.55"
  },
  {
    "town": "SAN MARTÍN DE BOLAÑOS",
    "state": "JALISCO",
    "lat": "21.60686",
    "lng": "-103.80474"
  },
  {
    "town": "SAN MARTÍN HIDALGO",
    "state": "JALISCO",
    "lat": "20.43668",
    "lng": "-103.91842"
  },
  {
    "town": "SAN MIGUEL EL ALTO",
    "state": "JALISCO",
    "lat": "20.99137",
    "lng": "-102.36449"
  },
  {
    "town": "GÓMEZ FARÍAS",
    "state": "JALISCO",
    "lat": "19.83103",
    "lng": "-103.4443"
  },
  {
    "town": "SAN SEBASTIÁN DEL OESTE",
    "state": "JALISCO",
    "lat": "20.8511",
    "lng": "-104.81903"
  },
  {
    "town": "SANTA MARÍA DE LOS ÁNGELES",
    "state": "JALISCO",
    "lat": "22.19245",
    "lng": "-103.18886"
  },
  {
    "town": "SAYULA",
    "state": "JALISCO",
    "lat": "19.8772",
    "lng": "-103.57337"
  },
  {
    "town": "TALA",
    "state": "JALISCO",
    "lat": "20.59824",
    "lng": "-103.69269"
  },
  {
    "town": "TALPA DE ALLENDE",
    "state": "JALISCO",
    "lat": "20.28616",
    "lng": "-104.91372"
  },
  {
    "town": "TAMAZULA DE GORDIANO",
    "state": "JALISCO",
    "lat": "19.65695",
    "lng": "-103.16905"
  },
  {
    "town": "TAPALPA",
    "state": "JALISCO",
    "lat": "19.95041",
    "lng": "-103.73757"
  },
  {
    "town": "TECALITLÁN",
    "state": "JALISCO",
    "lat": "19.26516",
    "lng": "-103.20892"
  },
  {
    "town": "TECOLOTLÁN",
    "state": "JALISCO",
    "lat": "20.21832",
    "lng": "-104.01971"
  },
  {
    "town": "TECHALUTA DE MONTENEGRO",
    "state": "JALISCO",
    "lat": "20.09161",
    "lng": "-103.56604"
  },
  {
    "town": "TENAMAXTLÁN",
    "state": "JALISCO",
    "lat": "20.1645",
    "lng": "-104.17052"
  },
  {
    "town": "TEOCALTICHE",
    "state": "JALISCO",
    "lat": "21.47201",
    "lng": "-102.54431"
  },
  {
    "town": "TEOCUITATLÁN DE CORONA",
    "state": "JALISCO",
    "lat": "20.10153",
    "lng": "-103.34996"
  },
  {
    "town": "TEPATITLÁN DE MORELOS",
    "state": "JALISCO",
    "lat": "20.81692",
    "lng": "-102.76347"
  },
  {
    "town": "TEQUILA",
    "state": "JALISCO",
    "lat": "20.88205",
    "lng": "-103.83599"
  },
  {
    "town": "TEUCHITLÁN",
    "state": "JALISCO",
    "lat": "20.67407",
    "lng": "-103.83442"
  },
  {
    "town": "TIZAPÁN EL ALTO",
    "state": "JALISCO",
    "lat": "20.12641",
    "lng": "-103.07531"
  },
  {
    "town": "TLAJOMULCO DE ZÚÑIGA",
    "state": "JALISCO",
    "lat": "20.49243",
    "lng": "-103.42939"
  },
  {
    "town": "SAN PEDRO TLAQUEPAQUE",
    "state": "JALISCO",
    "lat": "20.64091",
    "lng": "-103.29327"
  },
  {
    "town": "TOLIMÁN",
    "state": "JALISCO",
    "lat": "19.57479",
    "lng": "-103.90727"
  },
  {
    "town": "TOMATLÁN",
    "state": "JALISCO",
    "lat": "19.98213",
    "lng": "-105.1979"
  },
  {
    "town": "TONALÁ",
    "state": "JALISCO",
    "lat": "20.62445",
    "lng": "-103.23423"
  },
  {
    "town": "TONAYA",
    "state": "JALISCO",
    "lat": "19.82417",
    "lng": "-103.96644"
  },
  {
    "town": "TONILA",
    "state": "JALISCO",
    "lat": "19.42611",
    "lng": "-103.53185"
  },
  {
    "town": "TOTATICHE",
    "state": "JALISCO",
    "lat": "21.94047",
    "lng": "-103.47595"
  },
  {
    "town": "TOTOTLÁN",
    "state": "JALISCO",
    "lat": "20.53946",
    "lng": "-102.73918"
  },
  {
    "town": "TUXCACUESCO",
    "state": "JALISCO",
    "lat": "19.69625",
    "lng": "-104.01073"
  },
  {
    "town": "TUXCUECA",
    "state": "JALISCO",
    "lat": "20.15438",
    "lng": "-103.22962"
  },
  {
    "town": "TUXPAN",
    "state": "JALISCO",
    "lat": "19.55555",
    "lng": "-103.37587"
  },
  {
    "town": "UNIÓN DE SAN ANTONIO",
    "state": "JALISCO",
    "lat": "21.16013",
    "lng": "-101.99321"
  },
  {
    "town": "UNIÓN DE TULA",
    "state": "JALISCO",
    "lat": "19.96841",
    "lng": "-104.26733"
  },
  {
    "town": "VALLE DE GUADALUPE",
    "state": "JALISCO",
    "lat": "21.05228",
    "lng": "-102.63941"
  },
  {
    "town": "VALLE DE JUÁREZ",
    "state": "JALISCO",
    "lat": "19.81623",
    "lng": "-102.98341"
  },
  {
    "town": "SAN GABRIEL",
    "state": "JALISCO",
    "lat": "19.71224",
    "lng": "-103.75194"
  },
  {
    "town": "VILLA CORONA",
    "state": "JALISCO",
    "lat": "20.39885",
    "lng": "-103.68891"
  },
  {
    "town": "VILLA GUERRERO",
    "state": "JALISCO",
    "lat": "22.01014",
    "lng": "-103.6613"
  },
  {
    "town": "VILLA HIDALGO",
    "state": "JALISCO",
    "lat": "21.66491",
    "lng": "-102.57521"
  },
  {
    "town": "CAÑADAS DE OBREGÓN",
    "state": "JALISCO",
    "lat": "21.15018",
    "lng": "-102.69827"
  },
  {
    "town": "YAHUALICA DE GONZÁLEZ GALLO",
    "state": "JALISCO",
    "lat": "21.13794",
    "lng": "-102.91915"
  },
  {
    "town": "ZACOALCO DE TORRES",
    "state": "JALISCO",
    "lat": "20.23294",
    "lng": "-103.57373"
  },
  {
    "town": "ZAPOPAN",
    "state": "JALISCO",
    "lat": "20.72356",
    "lng": "-103.38479"
  },
  {
    "town": "ZAPOTILTIC",
    "state": "JALISCO",
    "lat": "19.61669",
    "lng": "-103.34885"
  },
  {
    "town": "ZAPOTITLÁN DE VADILLO",
    "state": "JALISCO",
    "lat": "19.51274",
    "lng": "-103.78881"
  },
  {
    "town": "ZAPOTLÁN DEL REY",
    "state": "JALISCO",
    "lat": "20.45497",
    "lng": "-102.91431"
  },
  {
    "town": "ZAPOTLANEJO",
    "state": "JALISCO",
    "lat": "20.6226",
    "lng": "-103.04516"
  },
  {
    "town": "SAN IGNACIO CERRO GORDO",
    "state": "JALISCO",
    "lat": "20.7603",
    "lng": "-102.51103"
  },
  {
    "town": "ACAMBAY DE RUÍZ CASTAÑEDA",
    "state": "ESTADO DE MÉXICO",
    "lat": "19.9715",
    "lng": "-99.87913"
  },
  {
    "town": "ACOLMAN",
    "state": "ESTADO DE MÉXICO",
    "lat": "19.61387",
    "lng": "-98.9364"
  },
  {
    "town": "ACULCO",
    "state": "ESTADO DE MÉXICO",
    "lat": "20.11086",
    "lng": "-99.8249"
  },
  {
    "town": "ALMOLOYA DE ALQUISIRAS",
    "state": "ESTADO DE MÉXICO",
    "lat": "18.84217",
    "lng": "-99.86416"
  },
  {
    "town": "ALMOLOYA DE JUÁREZ",
    "state": "ESTADO DE MÉXICO",
    "lat": "19.40091",
    "lng": "-99.8177"
  },
  {
    "town": "ALMOLOYA DEL RÍO",
    "state": "ESTADO DE MÉXICO",
    "lat": "19.15569",
    "lng": "-99.48035"
  },
  {
    "town": "AMANALCO",
    "state": "ESTADO DE MÉXICO",
    "lat": "19.26215",
    "lng": "-99.99961"
  },
  {
    "town": "AMATEPEC",
    "state": "ESTADO DE MÉXICO",
    "lat": "18.70481",
    "lng": "-100.29055"
  },
  {
    "town": "AMECAMECA",
    "state": "ESTADO DE MÉXICO",
    "lat": "19.12384",
    "lng": "-98.76649"
  },
  {
    "town": "APAXCO",
    "state": "ESTADO DE MÉXICO",
    "lat": "19.97577",
    "lng": "-99.16886"
  },
  {
    "town": "ATENCO",
    "state": "ESTADO DE MÉXICO",
    "lat": "19.26757",
    "lng": "-99.53214"
  },
  {
    "town": "ATIZAPÁN",
    "state": "ESTADO DE MÉXICO",
    "lat": "19.57378",
    "lng": "-99.29091"
  },
  {
    "town": "ATIZAPÁN DE ZARAGOZA",
    "state": "ESTADO DE MÉXICO",
    "lat": "19.55793",
    "lng": "-99.25675"
  },
  {
    "town": "ATLACOMULCO",
    "state": "ESTADO DE MÉXICO",
    "lat": "19.81411",
    "lng": "-99.86121"
  },
  {
    "town": "ATLAUTLA",
    "state": "ESTADO DE MÉXICO",
    "lat": "19.02222",
    "lng": "-98.62778"
  },
  {
    "town": "AXAPUSCO",
    "state": "ESTADO DE MÉXICO",
    "lat": "19.73213",
    "lng": "-98.74735"
  },
  {
    "town": "AYAPANGO",
    "state": "ESTADO DE MÉXICO",
    "lat": "19.13009",
    "lng": "-98.80975"
  },
  {
    "town": "CALIMAYA",
    "state": "ESTADO DE MÉXICO",
    "lat": "19.17691",
    "lng": "-99.61284"
  },
  {
    "town": "CAPULHUAC",
    "state": "ESTADO DE MÉXICO",
    "lat": "19.21346",
    "lng": "-99.46239"
  },
  {
    "town": "COACALCO DE BERRIOZÁBAL",
    "state": "ESTADO DE MÉXICO",
    "lat": "19.62923",
    "lng": "-99.10689"
  },
  {
    "town": "COATEPEC HARINAS",
    "state": "ESTADO DE MÉXICO",
    "lat": "18.93778",
    "lng": "-99.79189"
  },
  {
    "town": "COCOTITLÁN",
    "state": "ESTADO DE MÉXICO",
    "lat": "19.23357",
    "lng": "-98.8661"
  },
  {
    "town": "COYOTEPEC",
    "state": "ESTADO DE MÉXICO",
    "lat": "19.77615",
    "lng": "-99.20586"
  },
  {
    "town": "CUAUTITLÁN",
    "state": "ESTADO DE MÉXICO",
    "lat": "19.64388",
    "lng": "-99.21598"
  },
  {
    "town": "CHALCO",
    "state": "ESTADO DE MÉXICO",
    "lat": "19.26174",
    "lng": "-98.89775"
  },
  {
    "town": "CHAPA DE MOTA",
    "state": "ESTADO DE MÉXICO",
    "lat": "19.8242",
    "lng": "-99.55252"
  },
  {
    "town": "CHAPULTEPEC",
    "state": "ESTADO DE MÉXICO",
    "lat": "19.20113",
    "lng": "-99.55922"
  },
  {
    "town": "CHIAUTLA",
    "state": "ESTADO DE MÉXICO",
    "lat": "19.55",
    "lng": "-98.88064"
  },
  {
    "town": "CHICOLOAPAN",
    "state": "ESTADO DE MÉXICO",
    "lat": "19.41687",
    "lng": "-98.90202"
  },
  {
    "town": "CHICONCUAC",
    "state": "ESTADO DE MÉXICO",
    "lat": "19.55951",
    "lng": "-98.89657"
  },
  {
    "town": "CHIMALHUACÁN",
    "state": "ESTADO DE MÉXICO",
    "lat": "19.42155",
    "lng": "-98.95038"
  },
  {
    "town": "DONATO GUERRA",
    "state": "ESTADO DE MÉXICO",
    "lat": "19.31707",
    "lng": "-100.12361"
  },
  {
    "town": "ECATEPEC DE MORELOS",
    "state": "ESTADO DE MÉXICO",
    "lat": "19.60492",
    "lng": "-99.06064"
  },
  {
    "town": "ECATZINGO",
    "state": "ESTADO DE MÉXICO",
    "lat": "18.95792",
    "lng": "-98.75181"
  },
  {
    "town": "HUEHUETOCA",
    "state": "ESTADO DE MÉXICO",
    "lat": "19.83543",
    "lng": "-99.2038"
  },
  {
    "town": "HUEYPOXTLA",
    "state": "ESTADO DE MÉXICO",
    "lat": "19.91203",
    "lng": "-99.07702"
  },
  {
    "town": "HUIXQUILUCAN",
    "state": "ESTADO DE MÉXICO",
    "lat": "19.35985",
    "lng": "-99.35016"
  },
  {
    "town": "ISIDRO FABELA",
    "state": "ESTADO DE MÉXICO",
    "lat": "19.56312",
    "lng": "-99.40865"
  },
  {
    "town": "IXTAPALUCA",
    "state": "ESTADO DE MÉXICO",
    "lat": "19.31556",
    "lng": "-98.88284"
  },
  {
    "town": "IXTAPAN DE LA SAL",
    "state": "ESTADO DE MÉXICO",
    "lat": "18.85194",
    "lng": "-99.68497"
  },
  {
    "town": "IXTAPAN DEL ORO",
    "state": "ESTADO DE MÉXICO",
    "lat": "19.25739",
    "lng": "-100.27899"
  },
  {
    "town": "IXTLAHUACA",
    "state": "ESTADO DE MÉXICO",
    "lat": "19.56889",
    "lng": "-99.76694"
  },
  {
    "town": "XALATLACO",
    "state": "ESTADO DE MÉXICO",
    "lat": "19.17004",
    "lng": "-99.39518"
  },
  {
    "town": "JALTENCO",
    "state": "ESTADO DE MÉXICO",
    "lat": "19.75095",
    "lng": "-99.09376"
  },
  {
    "town": "JILOTEPEC",
    "state": "ESTADO DE MÉXICO",
    "lat": "20.00716",
    "lng": "-99.59178"
  },
  {
    "town": "JILOTZINGO",
    "state": "ESTADO DE MÉXICO",
    "lat": "19.52176",
    "lng": "-99.3843"
  },
  {
    "town": "JIQUIPILCO",
    "state": "ESTADO DE MÉXICO",
    "lat": "19.58213",
    "lng": "-99.64694"
  },
  {
    "town": "JOCOTITLÁN",
    "state": "ESTADO DE MÉXICO",
    "lat": "19.70864",
    "lng": "-99.80187"
  },
  {
    "town": "JOQUICINGO",
    "state": "ESTADO DE MÉXICO",
    "lat": "19.06719",
    "lng": "-99.52519"
  },
  {
    "town": "JUCHITEPEC",
    "state": "ESTADO DE MÉXICO",
    "lat": "19.10223",
    "lng": "-98.87914"
  },
  {
    "town": "LERMA",
    "state": "ESTADO DE MÉXICO",
    "lat": "19.35554",
    "lng": "-99.47047"
  },
  {
    "town": "MALINALCO",
    "state": "ESTADO DE MÉXICO",
    "lat": "18.89044",
    "lng": "-99.48202"
  },
  {
    "town": "MELCHOR OCAMPO",
    "state": "ESTADO DE MÉXICO",
    "lat": "19.70353",
    "lng": "-99.14286"
  },
  {
    "town": "METEPEC",
    "state": "ESTADO DE MÉXICO",
    "lat": "19.25934",
    "lng": "-99.60175"
  },
  {
    "town": "MEXICALTZINGO",
    "state": "ESTADO DE MÉXICO",
    "lat": "19.209",
    "lng": "-99.58591"
  },
  {
    "town": "MORELOS",
    "state": "ESTADO DE MÉXICO",
    "lat": "19.60492",
    "lng": "-99.06064"
  },
  {
    "town": "NAUCALPAN DE JUÁREZ",
    "state": "ESTADO DE MÉXICO",
    "lat": "19.47851",
    "lng": "-99.23963"
  },
  {
    "town": "NEZAHUALCÓYOTL",
    "state": "ESTADO DE MÉXICO",
    "lat": "19.40061",
    "lng": "-99.01483"
  },
  {
    "town": "NEXTLALPAN",
    "state": "ESTADO DE MÉXICO",
    "lat": "19.73932",
    "lng": "-99.07514"
  },
  {
    "town": "NICOLÁS ROMERO",
    "state": "ESTADO DE MÉXICO",
    "lat": "19.64177",
    "lng": "-99.3068"
  },
  {
    "town": "NOPALTEPEC",
    "state": "ESTADO DE MÉXICO",
    "lat": "19.77753",
    "lng": "-98.7089"
  },
  {
    "town": "OCOYOACAC",
    "state": "ESTADO DE MÉXICO",
    "lat": "19.27127",
    "lng": "-99.45787"
  },
  {
    "town": "OCUILAN",
    "state": "ESTADO DE MÉXICO",
    "lat": "18.99043",
    "lng": "-99.4091"
  },
  {
    "town": "EL ORO",
    "state": "ESTADO DE MÉXICO",
    "lat": "19.79083",
    "lng": "-100.07596"
  },
  {
    "town": "OTUMBA",
    "state": "ESTADO DE MÉXICO",
    "lat": "19.70013",
    "lng": "-98.75559"
  },
  {
    "town": "OTZOLOAPAN",
    "state": "ESTADO DE MÉXICO",
    "lat": "19.11489",
    "lng": "-100.33513"
  },
  {
    "town": "OTZOLOTEPEC",
    "state": "ESTADO DE MÉXICO",
    "lat": "19.43526",
    "lng": "-99.54407"
  },
  {
    "town": "OZUMBA",
    "state": "ESTADO DE MÉXICO",
    "lat": "19.039",
    "lng": "-98.79765"
  },
  {
    "town": "PAPALOTLA",
    "state": "ESTADO DE MÉXICO",
    "lat": "19.56351",
    "lng": "-98.85678"
  },
  {
    "town": "LA PAZ",
    "state": "ESTADO DE MÉXICO",
    "lat": "24.14437",
    "lng": "-110.3005"
  },
  {
    "town": "POLOTITLÁN",
    "state": "ESTADO DE MÉXICO",
    "lat": "20.21988",
    "lng": "-99.82205"
  },
  {
    "town": "RAYÓN",
    "state": "ESTADO DE MÉXICO",
    "lat": "19.13889",
    "lng": "-99.57704"
  },
  {
    "town": "SAN ANTONIO LA ISLA",
    "state": "ESTADO DE MÉXICO",
    "lat": "19.17317",
    "lng": "-99.554"
  },
  {
    "town": "SAN FELIPE DEL PROGRESO",
    "state": "ESTADO DE MÉXICO",
    "lat": "19.66016",
    "lng": "-99.981"
  },
  {
    "town": "SAN MARTÍN DE LAS PIRÁMIDES",
    "state": "ESTADO DE MÉXICO",
    "lat": "19.70538",
    "lng": "-98.83563"
  },
  {
    "town": "SAN MATEO ATENCO",
    "state": "ESTADO DE MÉXICO",
    "lat": "19.26757",
    "lng": "-99.53214"
  },
  {
    "town": "SAN SIMÓN DE GUERRERO",
    "state": "ESTADO DE MÉXICO",
    "lat": "18.97935",
    "lng": "-100.03673"
  },
  {
    "town": "SANTO TOMÁS",
    "state": "ESTADO DE MÉXICO",
    "lat": "19.17809",
    "lng": "-100.2856"
  },
  {
    "town": "SOYANIQUILPAN DE JUÁREZ",
    "state": "ESTADO DE MÉXICO",
    "lat": "20.03939",
    "lng": "-99.4942"
  },
  {
    "town": "SULTEPEC",
    "state": "ESTADO DE MÉXICO",
    "lat": "18.75003",
    "lng": "-99.98134"
  },
  {
    "town": "TECÁMAC",
    "state": "ESTADO DE MÉXICO",
    "lat": "19.68028",
    "lng": "-99.01"
  },
  {
    "town": "TEJUPILCO",
    "state": "ESTADO DE MÉXICO",
    "lat": "18.86162",
    "lng": "-100.23277"
  },
  {
    "town": "TEMAMATLA",
    "state": "ESTADO DE MÉXICO",
    "lat": "19.20378",
    "lng": "-98.86803"
  },
  {
    "town": "TEMASCALAPA",
    "state": "ESTADO DE MÉXICO",
    "lat": "19.82719",
    "lng": "-98.89875"
  },
  {
    "town": "TEMASCALCINGO",
    "state": "ESTADO DE MÉXICO",
    "lat": "19.91555",
    "lng": "-100.032"
  },
  {
    "town": "TEMASCALTEPEC",
    "state": "ESTADO DE MÉXICO",
    "lat": "19.06561",
    "lng": "-99.98379"
  },
  {
    "town": "TEMOAYA",
    "state": "ESTADO DE MÉXICO",
    "lat": "19.47104",
    "lng": "-99.59832"
  },
  {
    "town": "TENANCINGO",
    "state": "ESTADO DE MÉXICO",
    "lat": "18.96057",
    "lng": "-99.57561"
  },
  {
    "town": "TENANGO DEL AIRE",
    "state": "ESTADO DE MÉXICO",
    "lat": "19.15891",
    "lng": "-98.8591"
  },
  {
    "town": "TENANGO DEL VALLE",
    "state": "ESTADO DE MÉXICO",
    "lat": "19.08207",
    "lng": "-99.60548"
  },
  {
    "town": "TEOLOYUCAN",
    "state": "ESTADO DE MÉXICO",
    "lat": "19.74627",
    "lng": "-99.18079"
  },
  {
    "town": "TEOTIHUACÁN",
    "state": "ESTADO DE MÉXICO",
    "lat": "19.68648",
    "lng": "-98.86253"
  },
  {
    "town": "TEPETLAOXTOC",
    "state": "ESTADO DE MÉXICO",
    "lat": "19.57495",
    "lng": "-98.8191"
  },
  {
    "town": "TEPETLIXPA",
    "state": "ESTADO DE MÉXICO",
    "lat": "19.03007",
    "lng": "-98.82125"
  },
  {
    "town": "TEPOTZOTLÁN",
    "state": "ESTADO DE MÉXICO",
    "lat": "19.71492",
    "lng": "-99.22234"
  },
  {
    "town": "TEQUIXQUIAC",
    "state": "ESTADO DE MÉXICO",
    "lat": "19.90944",
    "lng": "-99.14472"
  },
  {
    "town": "TEXCALTITLÁN",
    "state": "ESTADO DE MÉXICO",
    "lat": "18.93997",
    "lng": "-99.93763"
  },
  {
    "town": "TEXCALYACAC",
    "state": "ESTADO DE MÉXICO",
    "lat": "19.1339",
    "lng": "-99.50176"
  },
  {
    "town": "TEXCOCO",
    "state": "ESTADO DE MÉXICO",
    "lat": "19.51194",
    "lng": "-98.88293"
  },
  {
    "town": "TEZOYUCA",
    "state": "ESTADO DE MÉXICO",
    "lat": "19.59238",
    "lng": "-98.90828"
  },
  {
    "town": "TIANGUISTENCO",
    "state": "ESTADO DE MÉXICO",
    "lat": "19.18024",
    "lng": "-99.46644"
  },
  {
    "town": "TIMILPAN",
    "state": "ESTADO DE MÉXICO",
    "lat": "19.88017",
    "lng": "-99.72552"
  },
  {
    "town": "TLALMANALCO",
    "state": "ESTADO DE MÉXICO",
    "lat": "19.19769",
    "lng": "-98.79262"
  },
  {
    "town": "TLALNEPANTLA DE BAZ",
    "state": "ESTADO DE MÉXICO",
    "lat": "19.54005",
    "lng": "-99.19538"
  },
  {
    "town": "TLATLAYA",
    "state": "ESTADO DE MÉXICO",
    "lat": "18.56171",
    "lng": "-100.2562"
  },
  {
    "town": "TOLUCA",
    "state": "ESTADO DE MÉXICO",
    "lat": "19.28786",
    "lng": "-99.65324"
  },
  {
    "town": "TONATICO",
    "state": "ESTADO DE MÉXICO",
    "lat": "18.78199",
    "lng": "-99.64363"
  },
  {
    "town": "TULTEPEC",
    "state": "ESTADO DE MÉXICO",
    "lat": "19.685",
    "lng": "-99.12806"
  },
  {
    "town": "TULTITLÁN",
    "state": "ESTADO DE MÉXICO",
    "lat": "19.60833",
    "lng": "-99.16944"
  },
  {
    "town": "VALLE DE BRAVO",
    "state": "ESTADO DE MÉXICO",
    "lat": "19.19501",
    "lng": "-100.13132"
  },
  {
    "town": "VILLA DE ALLENDE",
    "state": "ESTADO DE MÉXICO",
    "lat": "19.38338",
    "lng": "-100.12852"
  },
  {
    "town": "VILLA DEL CARBÓN",
    "state": "ESTADO DE MÉXICO",
    "lat": "19.7255",
    "lng": "-99.46009"
  },
  {
    "town": "VILLA GUERRERO",
    "state": "ESTADO DE MÉXICO",
    "lat": "18.96396",
    "lng": "-99.67353"
  },
  {
    "town": "VILLA VICTORIA",
    "state": "ESTADO DE MÉXICO",
    "lat": "19.4603",
    "lng": "-100.00166"
  },
  {
    "town": "XONACATLÁN",
    "state": "ESTADO DE MÉXICO",
    "lat": "19.4",
    "lng": "-99.533"
  },
  {
    "town": "ZACAZONAPAN",
    "state": "ESTADO DE MÉXICO",
    "lat": "19.0547",
    "lng": "-100.26623"
  },
  {
    "town": "ZACUALPAN",
    "state": "ESTADO DE MÉXICO",
    "lat": "18.80856",
    "lng": "-98.75274"
  },
  {
    "town": "ZINACANTEPEC",
    "state": "ESTADO DE MÉXICO",
    "lat": "19.28428",
    "lng": "-99.73394"
  },
  {
    "town": "ZUMPAHUACÁN",
    "state": "ESTADO DE MÉXICO",
    "lat": "18.83586",
    "lng": "-99.56357"
  },
  {
    "town": "ZUMPANGO",
    "state": "ESTADO DE MÉXICO",
    "lat": "19.7967",
    "lng": "-99.09946"
  },
  {
    "town": "CUAUTITLÁN IZCALLI",
    "state": "ESTADO DE MÉXICO",
    "lat": "19.64388",
    "lng": "-99.21598"
  },
  {
    "town": "VALLE DE CHALCO SOLIDARIDAD",
    "state": "ESTADO DE MÉXICO",
    "lat": "19.29462",
    "lng": "-98.93806"
  },
  {
    "town": "LUVIANOS",
    "state": "ESTADO DE MÉXICO",
    "lat": "18.94554",
    "lng": "-100.42448"
  },
  {
    "town": "SAN JOSÉ DEL RINCÓN",
    "state": "ESTADO DE MÉXICO",
    "lat": "19.62598",
    "lng": "-100.13183"
  },
  {
    "town": "TONANITLA",
    "state": "ESTADO DE MÉXICO",
    "lat": "19.68497",
    "lng": "-99.05604"
  },
  {
    "town": "ACUITZIO",
    "state": "MICHOACÁN",
    "lat": "19.47178",
    "lng": "-101.32921"
  },
  {
    "town": "AGUILILLA",
    "state": "MICHOACÁN",
    "lat": "18.76833",
    "lng": "-102.76541"
  },
  {
    "town": "ÁLVARO OBREGÓN",
    "state": "MICHOACÁN",
    "lat": "19.85984",
    "lng": "-101.02153"
  },
  {
    "town": "ANGAMACUTIRO",
    "state": "MICHOACÁN",
    "lat": "20.13444",
    "lng": "-101.72696"
  },
  {
    "town": "ANGANGUEO",
    "state": "MICHOACÁN",
    "lat": "19.62239",
    "lng": "-100.30179"
  },
  {
    "town": "APATZINGÁN",
    "state": "MICHOACÁN",
    "lat": "19.08864",
    "lng": "-102.35704"
  },
  {
    "town": "APORO",
    "state": "MICHOACÁN",
    "lat": "19.65192",
    "lng": "-100.39583"
  },
  {
    "town": "AQUILA",
    "state": "MICHOACÁN",
    "lat": "18.37585",
    "lng": "-103.2231"
  },
  {
    "town": "ARIO",
    "state": "MICHOACÁN",
    "lat": "19.16471",
    "lng": "-101.70663"
  },
  {
    "town": "ARTEAGA",
    "state": "MICHOACÁN",
    "lat": "18.3222",
    "lng": "-102.37006"
  },
  {
    "town": "BRISEÑAS",
    "state": "MICHOACÁN",
    "lat": "20.25149",
    "lng": "-102.57124"
  },
  {
    "town": "BUENAVISTA",
    "state": "MICHOACÁN",
    "lat": "19.21281",
    "lng": "-102.58735"
  },
  {
    "town": "CARÁCUARO",
    "state": "MICHOACÁN",
    "lat": "18.98513",
    "lng": "-101.04164"
  },
  {
    "town": "COAHUAYANA",
    "state": "MICHOACÁN",
    "lat": "18.72911",
    "lng": "-103.63713"
  },
  {
    "town": "COALCOMÁN DE VÁZQUEZ PALLARES",
    "state": "MICHOACÁN",
    "lat": "18.7775",
    "lng": "-103.16"
  },
  {
    "town": "COENEO",
    "state": "MICHOACÁN",
    "lat": "19.81067",
    "lng": "-101.61956"
  },
  {
    "town": "CONTEPEC",
    "state": "MICHOACÁN",
    "lat": "19.95493",
    "lng": "-100.21235"
  },
  {
    "town": "COPÁNDARO",
    "state": "MICHOACÁN",
    "lat": "19.88939",
    "lng": "-101.23889"
  },
  {
    "town": "COTIJA",
    "state": "MICHOACÁN",
    "lat": "19.74808",
    "lng": "-102.70878"
  },
  {
    "town": "CUITZEO",
    "state": "MICHOACÁN",
    "lat": "19.93833",
    "lng": "-101.16627"
  },
  {
    "town": "CHARAPAN",
    "state": "MICHOACÁN",
    "lat": "19.6578",
    "lng": "-102.24526"
  },
  {
    "town": "CHARO",
    "state": "MICHOACÁN",
    "lat": "19.66465",
    "lng": "-101.01489"
  },
  {
    "town": "CHAVINDA",
    "state": "MICHOACÁN",
    "lat": "20.04768",
    "lng": "-102.43914"
  },
  {
    "town": "CHERÁN",
    "state": "MICHOACÁN",
    "lat": "19.7041",
    "lng": "-101.997"
  },
  {
    "town": "CHILCHOTA",
    "state": "MICHOACÁN",
    "lat": "19.8419",
    "lng": "-102.08477"
  },
  {
    "town": "CHINICUILA",
    "state": "MICHOACÁN",
    "lat": "18.72234",
    "lng": "-103.3903"
  },
  {
    "town": "CHUCÁNDIRO",
    "state": "MICHOACÁN",
    "lat": "19.89149",
    "lng": "-101.34831"
  },
  {
    "town": "CHURINTZIO",
    "state": "MICHOACÁN",
    "lat": "20.12849",
    "lng": "-102.08104"
  },
  {
    "town": "CHURUMUCO",
    "state": "MICHOACÁN",
    "lat": "18.70629",
    "lng": "-101.60986"
  },
  {
    "town": "ECUANDUREO",
    "state": "MICHOACÁN",
    "lat": "20.15203",
    "lng": "-102.2254"
  },
  {
    "town": "EPITACIO HUERTA",
    "state": "MICHOACÁN",
    "lat": "20.14661",
    "lng": "-100.28577"
  },
  {
    "town": "ERONGARÍCUARO",
    "state": "MICHOACÁN",
    "lat": "19.59342",
    "lng": "-101.72001"
  },
  {
    "town": "GABRIEL ZAMORA",
    "state": "MICHOACÁN",
    "lat": "19.17456",
    "lng": "-102.01722"
  },
  {
    "town": "HIDALGO",
    "state": "MICHOACÁN",
    "lat": "19.9855",
    "lng": "-102.28387"
  },
  {
    "town": "LA HUACANA",
    "state": "MICHOACÁN",
    "lat": "18.88776",
    "lng": "-101.87491"
  },
  {
    "town": "HUANDACAREO",
    "state": "MICHOACÁN",
    "lat": "19.97831",
    "lng": "-101.28509"
  },
  {
    "town": "HUANIQUEO",
    "state": "MICHOACÁN",
    "lat": "19.89465",
    "lng": "-101.51221"
  },
  {
    "town": "HUETAMO",
    "state": "MICHOACÁN",
    "lat": "18.6577",
    "lng": "-101.05964"
  },
  {
    "town": "HUIRAMBA",
    "state": "MICHOACÁN",
    "lat": "19.52645",
    "lng": "-101.45959"
  },
  {
    "town": "INDAPARAPEO",
    "state": "MICHOACÁN",
    "lat": "19.75994",
    "lng": "-100.94535"
  },
  {
    "town": "IRIMBO",
    "state": "MICHOACÁN",
    "lat": "19.7076",
    "lng": "-100.46354"
  },
  {
    "town": "IXTLÁN",
    "state": "MICHOACÁN",
    "lat": "20.14426",
    "lng": "-102.4107"
  },
  {
    "town": "JACONA",
    "state": "MICHOACÁN",
    "lat": "19.94951",
    "lng": "-102.31788"
  },
  {
    "town": "JIMÉNEZ",
    "state": "MICHOACÁN",
    "lat": "19.92392",
    "lng": "-101.72895"
  },
  {
    "town": "JIQUILPAN",
    "state": "MICHOACÁN",
    "lat": "19.98474",
    "lng": "-102.75099"
  },
  {
    "town": "JUÁREZ",
    "state": "MICHOACÁN",
    "lat": "19.30398",
    "lng": "-100.43243"
  },
  {
    "town": "JUNGAPEO",
    "state": "MICHOACÁN",
    "lat": "19.44836",
    "lng": "-100.51448"
  },
  {
    "town": "LAGUNILLAS",
    "state": "MICHOACÁN",
    "lat": "19.5707",
    "lng": "-101.41941"
  },
  {
    "town": "MADERO",
    "state": "MICHOACÁN",
    "lat": "19.33549",
    "lng": "-101.15479"
  },
  {
    "town": "MARAVATÍO",
    "state": "MICHOACÁN",
    "lat": "19.89016",
    "lng": "-100.4237"
  },
  {
    "town": "MARCOS CASTELLANOS",
    "state": "MICHOACÁN",
    "lat": "20.03513",
    "lng": "-102.97274"
  },
  {
    "town": "LÁZARO CÁRDENAS",
    "state": "MICHOACÁN",
    "lat": "18.00173",
    "lng": "-102.22052"
  },
  {
    "town": "MORELIA",
    "state": "MICHOACÁN",
    "lat": "19.70078",
    "lng": "-101.18443"
  },
  {
    "town": "MORELOS",
    "state": "MICHOACÁN",
    "lat": "20.05859",
    "lng": "-102.71575"
  },
  {
    "town": "MÚGICA",
    "state": "MICHOACÁN",
    "lat": "18.98592",
    "lng": "-102.12132"
  },
  {
    "town": "NAHUATZEN",
    "state": "MICHOACÁN",
    "lat": "19.63029",
    "lng": "-101.89599"
  },
  {
    "town": "NOCUPÉTARO",
    "state": "MICHOACÁN",
    "lat": "19.11303",
    "lng": "-101.2125"
  },
  {
    "town": "NUEVO PARANGARICUTIRO",
    "state": "MICHOACÁN",
    "lat": "19.39221",
    "lng": "-102.18391"
  },
  {
    "town": "NUEVO URECHO",
    "state": "MICHOACÁN",
    "lat": "19.15417",
    "lng": "-101.86134"
  },
  {
    "town": "NUMARÁN",
    "state": "MICHOACÁN",
    "lat": "20.27263",
    "lng": "-101.96295"
  },
  {
    "town": "OCAMPO",
    "state": "MICHOACÁN",
    "lat": "19.16667",
    "lng": "-101.83333"
  },
  {
    "town": "PAJACUARÁN",
    "state": "MICHOACÁN",
    "lat": "20.13484",
    "lng": "-102.52589"
  },
  {
    "town": "PANINDÍCUARO",
    "state": "MICHOACÁN",
    "lat": "20.01155",
    "lng": "-101.76462"
  },
  {
    "town": "PARÁCUARO",
    "state": "MICHOACÁN",
    "lat": "19.04798",
    "lng": "-102.22357"
  },
  {
    "town": "PARACHO",
    "state": "MICHOACÁN",
    "lat": "19.64825",
    "lng": "-102.06505"
  },
  {
    "town": "PÁTZCUARO",
    "state": "MICHOACÁN",
    "lat": "19.62553",
    "lng": "-101.64017"
  },
  {
    "town": "PENJAMILLO",
    "state": "MICHOACÁN",
    "lat": "20.13411",
    "lng": "-101.9126"
  },
  {
    "town": "PERIBÁN",
    "state": "MICHOACÁN",
    "lat": "19.50441",
    "lng": "-102.42772"
  },
  {
    "town": "LA PIEDAD",
    "state": "MICHOACÁN",
    "lat": "20.34239",
    "lng": "-102.0305"
  },
  {
    "town": "PURÉPERO",
    "state": "MICHOACÁN",
    "lat": "19.91039",
    "lng": "-102.00625"
  },
  {
    "town": "PURUÁNDIRO",
    "state": "MICHOACÁN",
    "lat": "20.08886",
    "lng": "-101.51579"
  },
  {
    "town": "QUERÉNDARO",
    "state": "MICHOACÁN",
    "lat": "19.69745",
    "lng": "-100.84379"
  },
  {
    "town": "QUIROGA",
    "state": "MICHOACÁN",
    "lat": "19.67203",
    "lng": "-101.54393"
  },
  {
    "town": "COJUMATLÁN DE RÉGULES",
    "state": "MICHOACÁN",
    "lat": "20.11396",
    "lng": "-102.87005"
  },
  {
    "town": "LOS REYES",
    "state": "MICHOACÁN",
    "lat": "19.59042",
    "lng": "-102.47242"
  },
  {
    "town": "SAHUAYO",
    "state": "MICHOACÁN",
    "lat": "20.05859",
    "lng": "-102.71575"
  },
  {
    "town": "SAN LUCAS",
    "state": "MICHOACÁN",
    "lat": "18.58707",
    "lng": "-100.79865"
  },
  {
    "town": "SANTA ANA MAYA",
    "state": "MICHOACÁN",
    "lat": "20.04146",
    "lng": "-101.04209"
  },
  {
    "town": "SALVADOR ESCALANTE",
    "state": "MICHOACÁN",
    "lat": "19.37335",
    "lng": "-101.69617"
  },
  {
    "town": "SENGUIO",
    "state": "MICHOACÁN",
    "lat": "19.75386",
    "lng": "-100.33771"
  },
  {
    "town": "SUSUPUATO",
    "state": "MICHOACÁN",
    "lat": "19.19587",
    "lng": "-100.40633"
  },
  {
    "town": "TACÁMBARO",
    "state": "MICHOACÁN",
    "lat": "19.24033",
    "lng": "-101.4473"
  },
  {
    "town": "TANCÍTARO",
    "state": "MICHOACÁN",
    "lat": "19.33843",
    "lng": "-102.36264"
  },
  {
    "town": "TANGAMANDAPIO",
    "state": "MICHOACÁN",
    "lat": "19.91163",
    "lng": "-102.43409"
  },
  {
    "town": "TANGANCÍCUARO",
    "state": "MICHOACÁN",
    "lat": "19.88294",
    "lng": "-102.22859"
  },
  {
    "town": "TANHUATO",
    "state": "MICHOACÁN",
    "lat": "20.28521",
    "lng": "-102.33911"
  },
  {
    "town": "TARETAN",
    "state": "MICHOACÁN",
    "lat": "19.32798",
    "lng": "-101.91019"
  },
  {
    "town": "TARÍMBARO",
    "state": "MICHOACÁN",
    "lat": "19.79181",
    "lng": "-101.15034"
  },
  {
    "town": "TEPALCATEPEC",
    "state": "MICHOACÁN",
    "lat": "19.0603",
    "lng": "-102.84513"
  },
  {
    "town": "TINGAMBATO",
    "state": "MICHOACÁN",
    "lat": "19.49044",
    "lng": "-101.86206"
  },
  {
    "town": "TINGÜINDÍN",
    "state": "MICHOACÁN",
    "lat": "19.77928",
    "lng": "-102.49773"
  },
  {
    "town": "TIQUICHEO DE NICOLÁS ROMERO",
    "state": "MICHOACÁN",
    "lat": "19.08089",
    "lng": "-100.82552"
  },
  {
    "town": "TLALPUJAHUA",
    "state": "MICHOACÁN",
    "lat": "19.77977",
    "lng": "-100.19726"
  },
  {
    "town": "TLAZAZALCA",
    "state": "MICHOACÁN",
    "lat": "19.99988",
    "lng": "-102.07276"
  },
  {
    "town": "TOCUMBO",
    "state": "MICHOACÁN",
    "lat": "19.62",
    "lng": "-102.60068"
  },
  {
    "town": "TUMBISCATÍO",
    "state": "MICHOACÁN",
    "lat": "18.53958",
    "lng": "-102.53492"
  },
  {
    "town": "TURICATO",
    "state": "MICHOACÁN",
    "lat": "18.95323",
    "lng": "-101.42389"
  },
  {
    "town": "TUXPAN",
    "state": "MICHOACÁN",
    "lat": "19.56733",
    "lng": "-100.48516"
  },
  {
    "town": "TUZANTLA",
    "state": "MICHOACÁN",
    "lat": "19.24115",
    "lng": "-100.61726"
  },
  {
    "town": "TZINTZUNTZAN",
    "state": "MICHOACÁN",
    "lat": "19.60593",
    "lng": "-101.54798"
  },
  {
    "town": "TZITZIO",
    "state": "MICHOACÁN",
    "lat": "19.44492",
    "lng": "-100.90849"
  },
  {
    "town": "URUAPAN",
    "state": "MICHOACÁN",
    "lat": "19.41116",
    "lng": "-102.05644"
  },
  {
    "town": "VENUSTIANO CARRANZA",
    "state": "MICHOACÁN",
    "lat": "20.12162",
    "lng": "-102.67397"
  },
  {
    "town": "VILLAMAR",
    "state": "MICHOACÁN",
    "lat": "19.96062",
    "lng": "-102.59898"
  },
  {
    "town": "VISTA HERMOSA",
    "state": "MICHOACÁN",
    "lat": "20.27749",
    "lng": "-102.45698"
  },
  {
    "town": "YURÉCUARO",
    "state": "MICHOACÁN",
    "lat": "20.31247",
    "lng": "-102.25017"
  },
  {
    "town": "ZACAPU",
    "state": "MICHOACÁN",
    "lat": "19.81396",
    "lng": "-101.79157"
  },
  {
    "town": "ZAMORA",
    "state": "MICHOACÁN",
    "lat": "19.9855",
    "lng": "-102.28387"
  },
  {
    "town": "ZINÁPARO",
    "state": "MICHOACÁN",
    "lat": "20.16937",
    "lng": "-101.99923"
  },
  {
    "town": "ZINAPÉCUARO",
    "state": "MICHOACÁN",
    "lat": "19.86886",
    "lng": "-100.74184"
  },
  {
    "town": "ZIRACUARETIRO",
    "state": "MICHOACÁN",
    "lat": "19.41887",
    "lng": "-101.90884"
  },
  {
    "town": "ZITÁCUARO",
    "state": "MICHOACÁN",
    "lat": "19.43612",
    "lng": "-100.35733"
  },
  {
    "town": "JOSÉ SIXTO VERDUZCO",
    "state": "MICHOACÁN",
    "lat": "20.27506",
    "lng": "-101.5643"
  },
  {
    "town": "AMACUZAC",
    "state": "MORELOS",
    "lat": "18.60056",
    "lng": "-99.37252"
  },
  {
    "town": "ATLATLAHUCAN",
    "state": "MORELOS",
    "lat": "18.93554",
    "lng": "-98.89496"
  },
  {
    "town": "AXOCHIAPAN",
    "state": "MORELOS",
    "lat": "18.51633",
    "lng": "-98.74698"
  },
  {
    "town": "AYALA",
    "state": "MORELOS",
    "lat": "18.72604",
    "lng": "-98.95106"
  },
  {
    "town": "COATLÁN DEL RÍO",
    "state": "MORELOS",
    "lat": "18.73438",
    "lng": "-99.44875"
  },
  {
    "town": "CUAUTLA",
    "state": "MORELOS",
    "lat": "18.8106",
    "lng": "-98.93525"
  },
  {
    "town": "CUERNAVACA",
    "state": "MORELOS",
    "lat": "18.9261",
    "lng": "-99.23075"
  },
  {
    "town": "EMILIANO ZAPATA",
    "state": "MORELOS",
    "lat": "18.81062",
    "lng": "-99.18711"
  },
  {
    "town": "HUITZILAC",
    "state": "MORELOS",
    "lat": "19.02878",
    "lng": "-99.24847"
  },
  {
    "town": "JANTETELCO",
    "state": "MORELOS",
    "lat": "18.70126",
    "lng": "-98.78023"
  },
  {
    "town": "JIUTEPEC",
    "state": "MORELOS",
    "lat": "18.88139",
    "lng": "-99.17778"
  },
  {
    "town": "JOJUTLA",
    "state": "MORELOS",
    "lat": "18.58999",
    "lng": "-99.22129"
  },
  {
    "town": "JONACATEPEC DE LEANDRO VALLE",
    "state": "MORELOS",
    "lat": "18.68081",
    "lng": "-98.80336"
  },
  {
    "town": "MAZATEPEC",
    "state": "MORELOS",
    "lat": "18.71126",
    "lng": "-99.36517"
  },
  {
    "town": "MIACATLÁN",
    "state": "MORELOS",
    "lat": "18.78101",
    "lng": "-99.35386"
  },
  {
    "town": "OCUITUCO",
    "state": "MORELOS",
    "lat": "18.88252",
    "lng": "-98.78043"
  },
  {
    "town": "PUENTE DE IXTLA",
    "state": "MORELOS",
    "lat": "18.61472",
    "lng": "-99.31806"
  },
  {
    "town": "TEMIXCO",
    "state": "MORELOS",
    "lat": "18.85254",
    "lng": "-99.22537"
  },
  {
    "town": "TEPALCINGO",
    "state": "MORELOS",
    "lat": "18.60151",
    "lng": "-98.86942"
  },
  {
    "town": "TEPOZTLÁN",
    "state": "MORELOS",
    "lat": "18.96424",
    "lng": "-99.09972"
  },
  {
    "town": "TETECALA",
    "state": "MORELOS",
    "lat": "18.71103",
    "lng": "-99.40453"
  },
  {
    "town": "TETELA DEL VOLCÁN",
    "state": "MORELOS",
    "lat": "18.87504",
    "lng": "-98.71427"
  },
  {
    "town": "TLALNEPANTLA",
    "state": "MORELOS",
    "lat": "19.02052",
    "lng": "-98.96875"
  },
  {
    "town": "TLALTIZAPÁN DE ZAPATA",
    "state": "MORELOS",
    "lat": "18.70815",
    "lng": "-99.12618"
  },
  {
    "town": "TLAQUILTENANGO",
    "state": "MORELOS",
    "lat": "18.55041",
    "lng": "-99.12255"
  },
  {
    "town": "TLAYACAPAN",
    "state": "MORELOS",
    "lat": "18.95069",
    "lng": "-98.97599"
  },
  {
    "town": "TOTOLAPAN",
    "state": "MORELOS",
    "lat": "18.99277",
    "lng": "-98.92078"
  },
  {
    "town": "XOCHITEPEC",
    "state": "MORELOS",
    "lat": "18.77045",
    "lng": "-99.23266"
  },
  {
    "town": "YAUTEPEC",
    "state": "MORELOS",
    "lat": "18.88188",
    "lng": "-99.06715"
  },
  {
    "town": "YECAPIXTLA",
    "state": "MORELOS",
    "lat": "18.85913",
    "lng": "-98.87216"
  },
  {
    "town": "ZACATEPEC",
    "state": "MORELOS",
    "lat": "18.65225",
    "lng": "-99.20767"
  },
  {
    "town": "ZACUALPAN DE AMILPAS",
    "state": "MORELOS",
    "lat": "18.78389",
    "lng": "-98.76583"
  },
  {
    "town": "TEMOAC",
    "state": "MORELOS",
    "lat": "18.76067",
    "lng": "-98.77855"
  },
  {
    "town": "ACAPONETA",
    "state": "NAYARIT",
    "lat": "22.48146",
    "lng": "-105.33054"
  },
  {
    "town": "AHUACATLÁN",
    "state": "NAYARIT",
    "lat": "21.04517",
    "lng": "-104.54126"
  },
  {
    "town": "AMATLÁN DE CAÑAS",
    "state": "NAYARIT",
    "lat": "20.84228",
    "lng": "-104.42505"
  },
  {
    "town": "COMPOSTELA",
    "state": "NAYARIT",
    "lat": "21.14787",
    "lng": "-105.08989"
  },
  {
    "town": "HUAJICORI",
    "state": "NAYARIT",
    "lat": "22.77029",
    "lng": "-105.22216"
  },
  {
    "town": "IXTLÁN DEL RÍO",
    "state": "NAYARIT",
    "lat": "21.04444",
    "lng": "-104.32443"
  },
  {
    "town": "JALA",
    "state": "NAYARIT",
    "lat": "21.1806",
    "lng": "-104.39716"
  },
  {
    "town": "XALISCO",
    "state": "NAYARIT",
    "lat": "21.39832",
    "lng": "-104.92389"
  },
  {
    "town": "DEL NAYAR",
    "state": "NAYARIT",
    "lat": "22.11856",
    "lng": "-104.65044"
  },
  {
    "town": "ROSAMORADA",
    "state": "NAYARIT",
    "lat": "22.07727",
    "lng": "-105.19189"
  },
  {
    "town": "RUÍZ",
    "state": "NAYARIT",
    "lat": "22.01863",
    "lng": "-104.87825"
  },
  {
    "town": "SAN BLAS",
    "state": "NAYARIT",
    "lat": "21.57629",
    "lng": "-105.3233"
  },
  {
    "town": "SAN PEDRO LAGUNILLAS",
    "state": "NAYARIT",
    "lat": "21.19036",
    "lng": "-104.74031"
  },
  {
    "town": "SANTA MARÍA DEL ORO",
    "state": "NAYARIT",
    "lat": "21.3567",
    "lng": "-104.58604"
  },
  {
    "town": "SANTIAGO IXCUINTLA",
    "state": "NAYARIT",
    "lat": "21.80967",
    "lng": "-105.23187"
  },
  {
    "town": "TECUALA",
    "state": "NAYARIT",
    "lat": "22.37323",
    "lng": "-105.51686"
  },
  {
    "town": "TEPIC",
    "state": "NAYARIT",
    "lat": "21.50951",
    "lng": "-104.89569"
  },
  {
    "town": "TUXPAN",
    "state": "NAYARIT",
    "lat": "21.96149",
    "lng": "-105.37436"
  },
  {
    "town": "LA YESCA",
    "state": "NAYARIT",
    "lat": "21.54915",
    "lng": "-104.13395"
  },
  {
    "town": "BAHÍA DE BANDERAS",
    "state": "NAYARIT",
    "lat": "20.80426",
    "lng": "-105.30913"
  },
  {
    "town": "ABASOLO",
    "state": "NUEVO LEÓN",
    "lat": "25.94782",
    "lng": "-100.40521"
  },
  {
    "town": "AGUALEGUAS",
    "state": "NUEVO LEÓN",
    "lat": "26.30559",
    "lng": "-99.64489"
  },
  {
    "town": "LOS ALDAMAS",
    "state": "NUEVO LEÓN",
    "lat": "26.11408",
    "lng": "-99.24107"
  },
  {
    "town": "ALLENDE",
    "state": "NUEVO LEÓN",
    "lat": "25.30539",
    "lng": "-100.00649"
  },
  {
    "town": "ANÁHUAC",
    "state": "NUEVO LEÓN",
    "lat": "27.29545",
    "lng": "-100.12292"
  },
  {
    "town": "APODACA",
    "state": "NUEVO LEÓN",
    "lat": "25.78195",
    "lng": "-100.18839"
  },